USPS,ST,NAME,ZCTA5,LAT,LON
New South Wales,NSW,Albury,2640,-36.07352,146.91573
New South Wales,NSW,East Albury,2640,-36.09041,146.93912
New South Wales,NSW,Ettamogah,2640,-36.00155,146.95585
New South Wales,NSW,Glenroy (Albury - NSW),2640,-36.05258,146.89876
New South Wales,NSW,Glenroy (Albury - NSW),2653,-35.74719,147.88053
New South Wales,NSW,Hamilton Valley,2641,-36.02472,146.89686
New South Wales,NSW,Lake Hume Village,3691,-36.0943,147.03631
New South Wales,NSW,Lavington,2641,-36.02909,146.93586
New South Wales,NSW,North Albury,2640,-36.06059,146.93743
New South Wales,NSW,South Albury,2640,-36.09831,146.91415
New South Wales,NSW,Splitters Creek,2640,-36.05218,146.84864
New South Wales,NSW,Springdale Heights,2641,-36.02548,146.95794
New South Wales,NSW,Table Top,2640,-35.93717,147.02997
New South Wales,NSW,Thurgoona,2640,-36.05481,146.98849
New South Wales,NSW,West Albury,2640,-36.07353,146.88731
New South Wales,NSW,Wirlinga,2640,-36.04811,147.05654
New South Wales,NSW,Aberfoyle,2350,-30.23695,151.98519
New South Wales,NSW,Armidale,2350,-30.50195,151.66739
New South Wales,NSW,Backwater,2365,-30.05245,151.92236
New South Wales,NSW,Bald Blair,2365,-30.1723,151.81579
New South Wales,NSW,Baldersleigh,2365,-30.24226,151.4276
New South Wales,NSW,Ben Lomond (NSW),2365,-30.00596,151.66567
New South Wales,NSW,Black Mountain (NSW),2365,-30.32917,151.68914
New South Wales,NSW,Boorolong,2350,-30.35699,151.45893
New South Wales,NSW,Briarbrook,2365,-30.17876,151.35991
New South Wales,NSW,Brockley,2365,-30.26061,151.86129
New South Wales,NSW,Brushy Creek,2365,-30.18355,151.48184
New South Wales,NSW,Bundarra,2359,-30.09661,151.05996
New South Wales,NSW,Castle Doyle,2350,-30.62825,151.78619
New South Wales,NSW,Dangarsleigh,2350,-30.62796,151.68227
New South Wales,NSW,Donald Creek,2350,-30.42438,151.76057
New South Wales,NSW,Dumaresq,2350,-30.43302,151.55409
New South Wales,NSW,Ebor,2453,-30.40543,152.31573
New South Wales,NSW,Enmore (Armidale Regional - NSW),2350,-30.72933,151.84406
New South Wales,NSW,Enmore (Armidale Regional - NSW),2042,-33.90021,151.16983
New South Wales,NSW,Falconer,2365,-30.17431,151.73648
New South Wales,NSW,Georges Creek (NSW),2365,-30.16061,151.20954
New South Wales,NSW,Green Hills (Armidale Regional - NSW),2365,-30.26488,151.78422
New South Wales,NSW,Green Hills (Armidale Regional - NSW),2730,-35.55352,148.03156
New South Wales,NSW,Guyra,2365,-30.21551,151.62542
New South Wales,NSW,Hillgrove (Armidale Regional - NSW),2350,-30.63081,151.96912
New South Wales,NSW,Hillgrove (Armidale Regional - NSW),2650,-35.04511,147.35566
New South Wales,NSW,Howell,2360,-29.93794,151.0473
New South Wales,NSW,Jeogla,2350,-30.68695,152.17593
New South Wales,NSW,Kellys Plains,2350,-30.5833,151.62612
New South Wales,NSW,Kookabookra,2370,-30.02076,152.03276
New South Wales,NSW,Llangothlin,2365,-30.09819,151.68095
New South Wales,NSW,Lower Creek,2440,-30.66391,152.28119
New South Wales,NSW,Lyndhurst (Armidale Regional - NSW),2350,-30.35785,152.05709
New South Wales,NSW,Lyndhurst (Armidale Regional - NSW),2797,-33.68638,148.98683
New South Wales,NSW,Metz,2350,-30.57975,151.83313
New South Wales,NSW,New Valley,2365,-30.06726,151.3374
New South Wales,NSW,Oban,2365,-30.09946,151.86446
New South Wales,NSW,Puddledock,2350,-30.38482,151.75855
New South Wales,NSW,South Guyra,2365,-30.23934,151.67283
New South Wales,NSW,Stanborough,2360,-29.986,151.06387
New South Wales,NSW,Tenterden (NSW),2365,-30.11342,151.42202
New South Wales,NSW,Thalgarrah,2350,-30.40553,151.88916
New South Wales,NSW,Tilbuster,2350,-30.41649,151.70075
New South Wales,NSW,Tingha,2369,-29.97429,151.24976
New South Wales,NSW,Tubbamurra,2365,-30.09974,151.78491
New South Wales,NSW,Wandsworth,2365,-30.00179,151.46391
New South Wales,NSW,Wards Mistake,2350,-30.13063,152.03198
New South Wales,NSW,Wollomombi,2350,-30.48225,152.14401
New South Wales,NSW,Wongwibinda,2350,-30.2705,152.19963
New South Wales,NSW,Alstonvale,2477,-28.7955,153.44451
New South Wales,NSW,Alstonville,2477,-28.83869,153.44743
New South Wales,NSW,Bagotville,2477,-28.9771,153.40871
New South Wales,NSW,Ballina,2478,-28.83481,153.55796
New South Wales,NSW,Broken Head,2481,-28.73002,153.59346
New South Wales,NSW,Brooklet,2479,-28.7464,153.50417
New South Wales,NSW,Cabbage Tree Island (Ballina - NSW),2477,-28.98013,153.45672
New South Wales,NSW,Cabbage Tree Island (Ballina - NSW),2430,-31.94604,152.59093
New South Wales,NSW,Coolgardie (NSW),2478,-28.916,153.46031
New South Wales,NSW,Cumbalum,2478,-28.81697,153.53722
New South Wales,NSW,Dalwood (Ballina - NSW),2477,-28.89386,153.41514
New South Wales,NSW,Dalwood (Ballina - NSW),2335,-32.63101,151.41408
New South Wales,NSW,East Ballina,2478,-28.85856,153.58891
New South Wales,NSW,East Wardell,2477,-28.96332,153.4839
New South Wales,NSW,Empire Vale,2478,-28.92253,153.51995
New South Wales,NSW,Fernleigh,2479,-28.76919,153.48888
New South Wales,NSW,Keith Hall,2478,-28.89346,153.5458
New South Wales,NSW,Knockrow,2479,-28.76054,153.54021
New South Wales,NSW,Lennox Head,2478,-28.79156,153.58251
New South Wales,NSW,Lynwood (NSW),2477,-28.87076,153.44272
New South Wales,NSW,Marom Creek,2480,-28.90867,153.36512
New South Wales,NSW,McLeans Ridges,2480,-28.79233,153.39586
New South Wales,NSW,Meerschaum Vale,2477,-28.92631,153.41861
New South Wales,NSW,Newrybar,2479,-28.72773,153.54935
New South Wales,NSW,Patchs Beach,2478,-28.94696,153.50893
New South Wales,NSW,Pearces Creek,2477,-28.77089,153.44344
New South Wales,NSW,Pimlico (NSW),2478,-28.89426,153.49903
New South Wales,NSW,Rous,2477,-28.86359,153.40664
New South Wales,NSW,Rous Mill,2477,-28.8798,153.38181
New South Wales,NSW,Skennars Head,2478,-28.83301,153.58983
New South Wales,NSW,South Ballina,2478,-28.885,153.56988
New South Wales,NSW,Teven,2478,-28.81447,153.49145
New South Wales,NSW,Tintenbar,2478,-28.79193,153.53018
New South Wales,NSW,Tuckombil,2477,-28.8128,153.4678
New South Wales,NSW,Uralba,2477,-28.87374,153.4782
New South Wales,NSW,Wardell,2477,-28.96017,153.45732
New South Wales,NSW,West Ballina,2478,-28.85657,153.52284
New South Wales,NSW,Wollongbar,2477,-28.82016,153.40855
New South Wales,NSW,Arumpo,2715,-33.59205,143.02266
New South Wales,NSW,Balranald,2715,-34.32979,143.38926
New South Wales,NSW,Booligal,2711,-33.7322,144.68326
New South Wales,NSW,Clare (NSW),2711,-33.46751,143.97828
New South Wales,NSW,Corrong,2711,-34.02416,144.49898
New South Wales,NSW,Euston,2737,-34.37351,142.83635
New South Wales,NSW,Hatfield,2715,-33.72245,143.70999
New South Wales,NSW,Ivanhoe (NSW),2878,-32.70224,144.18213
New South Wales,NSW,Kyalite,2715,-34.9038,143.52329
New South Wales,NSW,Oxley (Balranald - NSW),2711,-34.04068,144.07173
New South Wales,NSW,Oxley (Balranald - NSW),2824,-30.99238,147.61842
New South Wales,NSW,Abercrombie,2795,-33.39205,149.55367
New South Wales,NSW,Abercrombie River,2795,-33.91177,149.33265
New South Wales,NSW,Arkell,2795,-33.73572,149.38154
New South Wales,NSW,Bald Ridge,2795,-33.93829,149.42276
New South Wales,NSW,Bathampton,2795,-33.49192,149.41364
New South Wales,NSW,Bathurst,2795,-33.41899,149.57822
New South Wales,NSW,Billywillinga,2795,-33.28651,149.43743
New South Wales,NSW,Brewongle,2795,-33.4724,149.69051
New South Wales,NSW,Bruinbun,2795,-33.11923,149.47319
New South Wales,NSW,Caloola,2795,-33.63911,149.43494
New South Wales,NSW,Charlton (NSW),2795,-33.6726,149.63848
New South Wales,NSW,Clear Creek,2795,-33.33365,149.71685
New South Wales,NSW,Colo (Bathurst Regional - NSW),2795,-33.77583,149.26472
New South Wales,NSW,Colo (Bathurst Regional - NSW),2756,-33.41666,150.80587
New South Wales,NSW,Copperhannia,2795,-33.87559,149.21311
New South Wales,NSW,Cow Flat,2795,-33.57423,149.51235
New South Wales,NSW,Crudine,2795,-32.98189,149.67504
New South Wales,NSW,Dunkeld (NSW),2795,-33.41056,149.48096
New South Wales,NSW,Duramana,2795,-33.25552,149.54998
New South Wales,NSW,Eglinton (NSW),2795,-33.36736,149.54308
New South Wales,NSW,Evans Plains,2795,-33.45879,149.48258
New South Wales,NSW,Fitzgeralds Mount,2799,-33.496,149.37749
New South Wales,NSW,Fitzgeralds Valley,2795,-33.52397,149.39364
New South Wales,NSW,Forest Grove (NSW),2795,-33.38908,149.66106
New South Wales,NSW,Fosters Valley,2795,-33.61641,149.5403
New South Wales,NSW,Freemantle,2795,-33.27954,149.36488
New South Wales,NSW,Gemalla,2795,-33.50167,149.84233
New South Wales,NSW,Georges Plains,2795,-33.53022,149.4909
New South Wales,NSW,Glanmire (NSW),2795,-33.42048,149.70868
New South Wales,NSW,Gormans Hill,2795,-33.46815,149.59526
New South Wales,NSW,Gowan,2795,-33.14962,149.35098
New South Wales,NSW,Hill End (NSW),2850,-33.0176,149.43937
New South Wales,NSW,Kelso (NSW),2795,-33.4286,149.62263
New South Wales,NSW,Killongbutta,2795,-33.18202,149.42588
New South Wales,NSW,Kirkconnell,2795,-33.42186,149.8521
New South Wales,NSW,Laffing Waters,2795,-33.36741,149.61966
New South Wales,NSW,Limekilns,2795,-33.24679,149.74934
New South Wales,NSW,Llanarth (NSW),2795,-33.39785,149.55099
New South Wales,NSW,Locksley (NSW),2795,-33.51554,149.79864
New South Wales,NSW,Meadow Flat,2795,-33.44048,149.92553
New South Wales,NSW,Milkers Flat,2795,-33.28085,149.39791
New South Wales,NSW,Millah Murrah,2795,-33.1778,149.60211
New South Wales,NSW,Mitchell (NSW),2795,-33.42617,149.55775
New South Wales,NSW,Mount Panorama,2795,-33.45107,149.55214
New South Wales,NSW,Mount Rankin,2795,-33.29542,149.47777
New South Wales,NSW,Napoleon Reef,2795,-33.39306,149.74713
New South Wales,NSW,O'Connell (NSW),2795,-33.55661,149.74675
New South Wales,NSW,Orton Park,2795,-33.46781,149.57298
New South Wales,NSW,Paling Yards (Bathurst Regional - NSW),2795,-33.17999,149.74452
New South Wales,NSW,Paling Yards (Bathurst Regional - NSW),2580,-34.11537,149.73907
New South Wales,NSW,Peel,2795,-33.30031,149.65436
New South Wales,NSW,Perthville,2795,-33.49539,149.54636
New South Wales,NSW,Raglan (NSW),2795,-33.42069,149.65113
New South Wales,NSW,Robin Hill,2795,-33.42392,149.53175
New South Wales,NSW,Rock Forest,2795,-33.35538,149.40076
New South Wales,NSW,Rockley,2795,-33.70014,149.53845
New South Wales,NSW,Rockley Mount,2795,-33.55312,149.55535
New South Wales,NSW,Sallys Flat,2850,-33.02976,149.56818
New South Wales,NSW,Sofala,2795,-33.05221,149.69533
New South Wales,NSW,South Bathurst,2795,-33.4427,149.57444
New South Wales,NSW,Sunny Corner,2795,-33.374,149.87982
New South Wales,NSW,Tambaroora,2850,-32.96504,149.40327
New South Wales,NSW,Tannas Mount,2795,-33.61325,149.64097
New South Wales,NSW,Tarana,2787,-33.54282,149.8835
New South Wales,NSW,The Lagoon,2795,-33.54556,149.62179
New South Wales,NSW,The Rocks (Bathurst Regional - NSW),2795,-33.43208,149.42276
New South Wales,NSW,The Rocks (Bathurst Regional - NSW),2000,-33.85881,151.20806
New South Wales,NSW,Triangle Flat,2795,-33.78763,149.44994
New South Wales,NSW,Trunkey Creek,2795,-33.80655,149.34199
New South Wales,NSW,Turondale,2795,-33.1164,149.59522
New South Wales,NSW,Vittoria (NSW),2799,-33.41713,149.34886
New South Wales,NSW,Walang,2795,-33.45191,149.76801
New South Wales,NSW,Wambool,2795,-33.50983,149.75898
New South Wales,NSW,Wattle Flat (NSW),2795,-33.14822,149.68001
New South Wales,NSW,Watton,2795,-33.31249,149.41692
New South Wales,NSW,West Bathurst,2795,-33.40794,149.56176
New South Wales,NSW,White Rock (NSW),2795,-33.46169,149.61692
New South Wales,NSW,Wiagdon,2795,-33.21622,149.66267
New South Wales,NSW,Wimbledon,2795,-33.53998,149.43485
New South Wales,NSW,Windradyne,2795,-33.40579,149.54454
New South Wales,NSW,Yarras (Bathurst Regional - NSW),2795,-33.36586,149.67356
New South Wales,NSW,Yarras (Bathurst Regional - NSW),2446,-31.43574,152.36024
New South Wales,NSW,Yetholme,2795,-33.43259,149.81415
New South Wales,NSW,Angledale,2550,-36.63357,149.8683
New South Wales,NSW,Bald Hills (NSW),2549,-36.91032,149.84467
New South Wales,NSW,Barragga Bay,2546,-36.50366,150.05204
New South Wales,NSW,Bega,2550,-36.6858,149.84245
New South Wales,NSW,Bemboka,2550,-36.61579,149.5671
New South Wales,NSW,Bermagui,2546,-36.42695,150.03923
New South Wales,NSW,Berrambool,2548,-36.88087,149.91027
New South Wales,NSW,Black Range (NSW),2550,-36.73385,149.84332
New South Wales,NSW,Bournda,2548,-36.8114,149.88941
New South Wales,NSW,Boydtown,2551,-37.10498,149.87917
New South Wales,NSW,Broadwater (Bega Valley - NSW),2549,-36.97201,149.89187
New South Wales,NSW,Broadwater (Bega Valley - NSW),2472,-29.03581,153.43522
New South Wales,NSW,Brogo,2550,-36.47625,149.69
New South Wales,NSW,Buckajo,2550,-36.69187,149.75555
New South Wales,NSW,Burragate,2550,-37.0024,149.64101
New South Wales,NSW,Candelo,2550,-36.78368,149.66763
New South Wales,NSW,Chinnock,2550,-36.69548,149.93088
New South Wales,NSW,Cobargo,2550,-36.39471,149.88836
New South Wales,NSW,Coolagolite,2550,-36.44001,149.97133
New South Wales,NSW,Coopers Gully,2550,-36.65093,149.79347
New South Wales,NSW,Cuttagee,2546,-36.48445,150.03813
New South Wales,NSW,Devils Hole,2550,-36.87327,149.64948
New South Wales,NSW,Dignams Creek,2546,-36.31507,149.97006
New South Wales,NSW,Doctor George Mountain,2550,-36.66422,149.8972
New South Wales,NSW,Eden,2551,-37.01948,149.89459
New South Wales,NSW,Frogs Hollow,2550,-36.76362,149.81617
New South Wales,NSW,Greendale (Bega Valley - NSW),2550,-36.58179,149.86683
New South Wales,NSW,Greendale (Bega Valley - NSW),2745,-33.92591,150.66162
New South Wales,NSW,Greigs Flat,2549,-36.97379,149.85238
New South Wales,NSW,Jellat Jellat,2550,-36.72389,149.88184
New South Wales,NSW,Kalaru,2550,-36.73111,149.92941
New South Wales,NSW,Kameruka,2550,-36.71649,149.69874
New South Wales,NSW,Kanoona,2550,-36.74811,149.77545
New South Wales,NSW,Kiah,2551,-37.15396,149.83619
New South Wales,NSW,Kingswood (Bega Valley - NSW),2550,-36.74426,149.82036
New South Wales,NSW,Kingswood (Bega Valley - NSW),2747,-33.76129,150.72784
New South Wales,NSW,Kingswood (Bega Valley - NSW),2340,-31.16136,150.9308
New South Wales,NSW,Lochiel (NSW),2549,-36.94665,149.78377
New South Wales,NSW,Merimbula,2548,-36.89614,149.90424
New South Wales,NSW,Millingandi,2549,-36.88276,149.85648
New South Wales,NSW,Mirador,2548,-36.87677,149.91989
New South Wales,NSW,Mogareeka,2550,-36.69284,149.98017
New South Wales,NSW,Mogilla,2550,-36.70807,149.5615
New South Wales,NSW,Morans Crossing,2550,-36.66822,149.65451
New South Wales,NSW,Mount Darragh,2632,-36.84696,149.57767
New South Wales,NSW,Murrah,2546,-36.51768,149.98489
New South Wales,NSW,Myrtle Mountain,2550,-36.85567,149.68366
New South Wales,NSW,Narrabarba,2551,-37.22079,149.77249
New South Wales,NSW,Nelson (Bega Valley - NSW),2765,-33.64457,150.92333
New South Wales,NSW,Nelson (Bega Valley - NSW),2550,-36.66695,149.957
New South Wales,NSW,Nethercote,2549,-37.02572,149.7945
New South Wales,NSW,New Buildings,2550,-36.96069,149.55961
New South Wales,NSW,Nullica,2551,-37.05542,149.77363
New South Wales,NSW,Numbugga,2550,-36.62236,149.7105
New South Wales,NSW,Pambula,2549,-36.92999,149.87665
New South Wales,NSW,Pambula Beach,2549,-36.94474,149.8991
New South Wales,NSW,Pericoe,2550,-37.05439,149.58422
New South Wales,NSW,Quaama,2550,-36.46639,149.89039
New South Wales,NSW,Reedy Swamp,2550,-36.69954,149.90468
New South Wales,NSW,Rocky Hall,2550,-36.92254,149.50501
New South Wales,NSW,South Pambula,2549,-36.94869,149.85359
New South Wales,NSW,South Wolumla,2550,-36.85717,149.7657
New South Wales,NSW,Stony Creek (Bega Valley - NSW),2550,-36.61731,149.80198
New South Wales,NSW,Stony Creek (Bega Valley - NSW),2850,-32.47571,149.73022
New South Wales,NSW,Tanja,2550,-36.62516,149.96428
New South Wales,NSW,Tantawangalo,2550,-36.74382,149.57015
New South Wales,NSW,Tarraganda,2550,-36.6782,149.86563
New South Wales,NSW,Tathra,2550,-36.73733,149.96654
New South Wales,NSW,Timbillica,2551,-37.32308,149.73612
New South Wales,NSW,Toothdale,2550,-36.78034,149.75126
New South Wales,NSW,Towamba,2550,-37.10727,149.71173
New South Wales,NSW,Tura Beach,2548,-36.85986,149.92501
New South Wales,NSW,Verona,2550,-36.44744,149.80887
New South Wales,NSW,Wallaga Lake,2546,-36.36991,150.05482
New South Wales,NSW,Wallagoot,2550,-36.76604,149.92121
New South Wales,NSW,Wandella (NSW),2550,-36.30868,149.87001
New South Wales,NSW,Wapengo,2550,-36.58473,149.96608
New South Wales,NSW,Wolumla,2550,-36.81613,149.81469
New South Wales,NSW,Wonboyn,2551,-37.25588,149.93485
New South Wales,NSW,Wyndham (NSW),2550,-36.92217,149.63377
New South Wales,NSW,Yellow Pinch,2548,-36.85823,149.83571
New South Wales,NSW,Yowrie,2550,-36.3057,149.73565
New South Wales,NSW,Bellingen,2454,-30.45402,152.89238
New South Wales,NSW,Bielsdown Hills,2453,-30.37186,152.6712
New South Wales,NSW,Bostobrick,2453,-30.27688,152.6016
New South Wales,NSW,Brierfield,2454,-30.51557,152.91364
New South Wales,NSW,Cascade (NSW),2453,-30.23112,152.77418
New South Wales,NSW,Darkwood,2454,-30.429,152.63799
New South Wales,NSW,Deer Vale,2453,-30.34938,152.53928
New South Wales,NSW,Dorrigo,2453,-30.32769,152.69235
New South Wales,NSW,Dorrigo Mountain,2453,-30.3706,152.72224
New South Wales,NSW,Fernbrook,2453,-30.34349,152.61228
New South Wales,NSW,Fernmount,2454,-30.4767,152.94445
New South Wales,NSW,Gleniffer,2454,-30.38163,152.88327
New South Wales,NSW,Kalang,2454,-30.49504,152.71045
New South Wales,NSW,Kennaicle Creek,2449,-30.5289,152.8177
New South Wales,NSW,Megan,2453,-30.2997,152.77554
New South Wales,NSW,Mylestom,2454,-30.47587,153.04029
New South Wales,NSW,North Dorrigo,2453,-30.26491,152.68073
New South Wales,NSW,Raleigh,2454,-30.45824,152.99413
New South Wales,NSW,Repton,2454,-30.44154,153.03532
New South Wales,NSW,Spicketts Creek,2454,-30.53472,152.86273
New South Wales,NSW,Tallowwood Ridge,2453,-30.25599,152.72441
New South Wales,NSW,Thora,2454,-30.43682,152.77836
New South Wales,NSW,Urunga,2455,-30.51851,152.98859
New South Wales,NSW,Valery,2454,-30.38914,152.95808
New South Wales,NSW,Valla,2448,-30.58354,152.9584
New South Wales,NSW,Barooga,3644,-35.90962,145.69879
New South Wales,NSW,Berrigan,2712,-35.65031,145.82832
New South Wales,NSW,Boomanoomana,2712,-35.88667,145.8499
New South Wales,NSW,Finley,2713,-35.59323,145.57945
New South Wales,NSW,Lalalty,3644,-35.80535,145.71776
New South Wales,NSW,Mulwala,2647,-35.91969,146.05748
New South Wales,NSW,Savernake,2646,-35.73554,146.02409
New South Wales,NSW,Tocumwal,2714,-35.79102,145.5083
New South Wales,NSW,Acacia Gardens,2763,-33.73411,150.91377
New South Wales,NSW,Arndell Park,2148,-33.79031,150.88447
New South Wales,NSW,Bidwill (NSW),2770,-33.73005,150.82062
New South Wales,NSW,Blackett,2770,-33.73837,150.81532
New South Wales,NSW,Blacktown,2148,-33.77655,150.90338
New South Wales,NSW,Bungarribee,2767,-33.77976,150.86393
New South Wales,NSW,Colebee,2761,-33.72449,150.85843
New South Wales,NSW,Dean Park,2761,-33.73536,150.8596
New South Wales,NSW,Dharruk,2770,-33.74965,150.81483
New South Wales,NSW,Doonside,2767,-33.76242,150.87007
New South Wales,NSW,Eastern Creek,2766,-33.79734,150.84976
New South Wales,NSW,Emerton,2770,-33.7429,150.80586
New South Wales,NSW,Glendenning,2761,-33.74778,150.8557
New South Wales,NSW,Glenwood (NSW),2768,-33.73755,150.93545
New South Wales,NSW,Hassall Grove,2761,-33.73175,150.83793
New South Wales,NSW,Hebersham,2770,-33.74575,150.82394
New South Wales,NSW,Kellyville Ridge,2155,-33.70376,150.92052
New South Wales,NSW,Kings Langley,2147,-33.75075,150.93583
New South Wales,NSW,Kings Park (NSW),2148,-33.7437,150.9059
New South Wales,NSW,Lalor Park,2147,-33.76065,150.93136
New South Wales,NSW,Lethbridge Park,2770,-33.73806,150.80064
New South Wales,NSW,Marayong,2148,-33.74925,150.89081
New South Wales,NSW,Marsden Park,2765,-33.69979,150.81845
New South Wales,NSW,Minchinbury,2770,-33.78664,150.82899
New South Wales,NSW,Mount Druitt,2770,-33.76791,150.8136
New South Wales,NSW,Oakhurst (NSW),2761,-33.73724,150.83862
New South Wales,NSW,Parklea,2768,-33.72521,150.91722
New South Wales,NSW,Plumpton (NSW),2761,-33.75211,150.83639
New South Wales,NSW,Prospect (NSW),2148,-33.81244,150.90067
New South Wales,NSW,Quakers Hill,2763,-33.72826,150.88995
New South Wales,NSW,Riverstone,2765,-33.66886,150.85969
New South Wales,NSW,Rooty Hill,2766,-33.77213,150.845
New South Wales,NSW,Ropes Crossing,2760,-33.72757,150.77848
New South Wales,NSW,Rouse Hill,2155,-33.67757,150.91278
New South Wales,NSW,Schofields,2762,-33.70583,150.8735
New South Wales,NSW,Seven Hills (NSW),2147,-33.77743,150.94272
New South Wales,NSW,Shalvey,2770,-33.72788,150.80677
New South Wales,NSW,Shanes Park,2747,-33.70747,150.79135
New South Wales,NSW,Stanhope Gardens,2768,-33.71551,150.92733
New South Wales,NSW,The Ponds,2769,-33.70612,150.90622
New South Wales,NSW,Toongabbie (NSW),2146,-33.79196,150.9468
New South Wales,NSW,Tregear,2770,-33.74517,150.79271
New South Wales,NSW,Vineyard,2765,-33.64161,150.85208
New South Wales,NSW,Whalan,2770,-33.75572,150.80361
New South Wales,NSW,Willmot,2770,-33.72491,150.79165
New South Wales,NSW,Woodcroft (NSW),2767,-33.75523,150.88065
New South Wales,NSW,Alleena,2671,-34.09228,147.13518
New South Wales,NSW,Ardlethan,2665,-34.33458,146.84248
New South Wales,NSW,Ariah Park,2665,-34.30527,147.2019
New South Wales,NSW,Back Creek (Bland - NSW),2671,-33.84678,147.45639
New South Wales,NSW,Back Creek (Bland - NSW),2422,-31.9623,152.04938
New South Wales,NSW,Back Creek (Bland - NSW),2390,-30.10689,150.27122
New South Wales,NSW,Back Creek (Bland - NSW),2622,-35.34612,149.94415
New South Wales,NSW,Back Creek (Bland - NSW),2372,-28.95703,151.70533
New South Wales,NSW,Back Creek (Bland - NSW),2484,-28.41034,153.17285
New South Wales,NSW,Barellan,2665,-34.19626,146.60744
New South Wales,NSW,Barmedman,2668,-34.12202,147.42794
New South Wales,NSW,Beckom,2665,-34.28041,147.00069
New South Wales,NSW,Bland,2721,-34.02509,147.63048
New South Wales,NSW,Girral,2669,-33.66512,147.14846
New South Wales,NSW,Kamarah,2665,-34.3592,146.75343
New South Wales,NSW,Kikoira,2669,-33.6666,146.6636
New South Wales,NSW,Lake Cowal,2671,-33.66111,147.37522
New South Wales,NSW,Mirrool,2665,-34.23017,147.06294
New South Wales,NSW,Naradhan,2669,-33.65613,146.34992
New South Wales,NSW,North Yalgogrin,2671,-33.82292,146.84745
New South Wales,NSW,Quandialla,2721,-34.01933,147.78266
New South Wales,NSW,Rankins Springs,2669,-33.784,146.16148
New South Wales,NSW,Tallimba,2669,-34.0492,146.8819
New South Wales,NSW,Ungarie,2669,-33.58555,146.91685
New South Wales,NSW,Weethalle,2669,-33.86293,146.58443
New South Wales,NSW,West Wyalong,2671,-33.87275,147.11118
New South Wales,NSW,Wyalong,2671,-33.90311,147.30345
New South Wales,NSW,Barry (Blayney - NSW),2799,-33.64883,149.27212
New South Wales,NSW,Barry (Blayney - NSW),2340,-31.60187,151.28493
New South Wales,NSW,Blayney,2799,-33.53741,149.25456
New South Wales,NSW,Browns Creek,2799,-33.53635,149.14311
New South Wales,NSW,Burnt Yards,2792,-33.59022,149.02452
New South Wales,NSW,Caloola,2795,-33.63911,149.43494
New South Wales,NSW,Carcoar,2791,-33.61898,149.13598
New South Wales,NSW,Errowanbang,2791,-33.53048,149.03722
New South Wales,NSW,Forest Reefs,2798,-33.46567,149.07316
New South Wales,NSW,Garland,2797,-33.75886,149.03426
New South Wales,NSW,Hobbys Yards,2795,-33.69409,149.32413
New South Wales,NSW,Kings Plains (Blayney - NSW),2799,-33.48984,149.32401
New South Wales,NSW,Kings Plains (Blayney - NSW),2360,-29.5992,151.41494
New South Wales,NSW,Lyndhurst (Blayney - NSW),2350,-30.35785,152.05709
New South Wales,NSW,Lyndhurst (Blayney - NSW),2797,-33.68638,148.98683
New South Wales,NSW,Mandurama,2792,-33.65929,148.99372
New South Wales,NSW,Millthorpe,2798,-33.45554,149.19474
New South Wales,NSW,Moorilda,2795,-33.62768,149.32862
New South Wales,NSW,Neville,2799,-33.74508,149.2033
New South Wales,NSW,Newbridge (NSW),2795,-33.58241,149.373
New South Wales,NSW,Panuara,2800,-33.51918,148.928
New South Wales,NSW,Tallwood,2798,-33.50343,149.12112
New South Wales,NSW,Bell (NSW),2786,-33.50034,150.3026
New South Wales,NSW,Berambing,2758,-33.53268,150.44882
New South Wales,NSW,Blackheath,2785,-33.63908,150.28442
New South Wales,NSW,Blaxland (NSW),2774,-33.74507,150.61818
New South Wales,NSW,Bullaburra,2784,-33.72779,150.41952
New South Wales,NSW,Faulconbridge,2776,-33.68513,150.55384
New South Wales,NSW,Glenbrook,2773,-33.76592,150.62573
New South Wales,NSW,Hawkesbury Heights,2777,-33.67019,150.6452
New South Wales,NSW,Hazelbrook,2779,-33.72807,150.45754
New South Wales,NSW,Katoomba,2780,-33.7057,150.29458
New South Wales,NSW,Lapstone,2773,-33.77461,150.63551
New South Wales,NSW,Lawson (NSW),2783,-33.71817,150.4343
New South Wales,NSW,Leura,2780,-33.70979,150.33888
New South Wales,NSW,Linden (NSW),2778,-33.71095,150.49622
New South Wales,NSW,Medlow Bath,2780,-33.67971,150.28985
New South Wales,NSW,Megalong Valley,2785,-33.72707,150.22223
New South Wales,NSW,Mount Irvine,2786,-33.4798,150.45478
New South Wales,NSW,Mount Riverview,2774,-33.72773,150.63789
New South Wales,NSW,Mount Tomah,2758,-33.5426,150.42271
New South Wales,NSW,Mount Victoria,2786,-33.57768,150.24047
New South Wales,NSW,Mount Wilson,2786,-33.50403,150.39359
New South Wales,NSW,Springwood (NSW),2777,-33.69209,150.57478
New South Wales,NSW,Sun Valley (NSW),2777,-33.70782,150.59796
New South Wales,NSW,Valley Heights,2777,-33.71038,150.58383
New South Wales,NSW,Warrimoo,2774,-33.7239,150.61735
New South Wales,NSW,Wentworth Falls,2782,-33.72838,150.3799
New South Wales,NSW,Winmalee,2777,-33.67971,150.61119
New South Wales,NSW,Woodford (NSW),2778,-33.73781,150.47911
New South Wales,NSW,Yellow Rock (Blue Mountains - NSW),2777,-33.69332,150.62904
New South Wales,NSW,Yellow Rock (Blue Mountains - NSW),2527,-34.60165,150.73738
New South Wales,NSW,Babinda (NSW),2825,-31.92247,146.52159
New South Wales,NSW,Bobadah,2877,-32.28135,146.6977
New South Wales,NSW,Buddabadah,2825,-31.94242,147.16985
New South Wales,NSW,Canbelego,2835,-31.51903,146.25005
New South Wales,NSW,Canonba,2825,-31.31343,147.43996
New South Wales,NSW,Coolabah,2831,-30.99969,146.68886
New South Wales,NSW,Five Ways,2873,-32.16554,146.96635
New South Wales,NSW,Girilambone,2831,-31.22967,146.81566
New South Wales,NSW,Hermidale,2831,-31.63132,146.64526
New South Wales,NSW,Honeybugle,2825,-31.83848,146.85814
New South Wales,NSW,Miandetta (NSW),2825,-31.5883,146.91135
New South Wales,NSW,Mulla,2825,-31.82232,147.36441
New South Wales,NSW,Murrawombie,2825,-31.17668,147.24824
New South Wales,NSW,Nyngan,2825,-31.5438,147.1529
New South Wales,NSW,Pangee,2825,-32.00007,146.79833
New South Wales,NSW,Banksmeadow,2019,-33.95607,151.21365
New South Wales,NSW,Botany,2019,-33.94907,151.19881
New South Wales,NSW,Daceyville,2032,-33.9289,151.22527
New South Wales,NSW,Eastgardens,2036,-33.94502,151.22653
New South Wales,NSW,Eastlakes,2018,-33.93108,151.21145
New South Wales,NSW,Hillsdale,2036,-33.95297,151.22753
New South Wales,NSW,Mascot,2020,-33.9466,151.18371
New South Wales,NSW,Pagewood,2035,-33.93894,151.2136
New South Wales,NSW,Rosebery (NSW),2018,-33.91857,151.20485
New South Wales,NSW,Bourke,2840,-30.19225,145.99276
New South Wales,NSW,Byrock,2831,-30.50387,146.36346
New South Wales,NSW,Enngonia,2840,-29.2745,145.91309
New South Wales,NSW,Fords Bridge,2840,-29.67848,145.22456
New South Wales,NSW,Gumbalie,2840,-30.14049,145.21662
New South Wales,NSW,Gunderbooka,2840,-30.61252,145.77272
New South Wales,NSW,Hungerford (NSW),2840,-29.20305,144.61733
New South Wales,NSW,Louth,2840,-30.58788,144.85681
New South Wales,NSW,North Bourke,2840,-29.75361,146.13125
New South Wales,NSW,Wanaaring,2840,-29.71151,143.75388
New South Wales,NSW,Yantabulla,2840,-29.30141,145.04797
New South Wales,NSW,Angledool,2834,-29.1476,147.92609
New South Wales,NSW,Brewarrina,2839,-29.99249,146.91251
New South Wales,NSW,Byrock,2831,-30.50387,146.36346
New South Wales,NSW,Collerina,2839,-29.53603,146.73061
New South Wales,NSW,Enngonia,2840,-29.2745,145.91309
New South Wales,NSW,Gongolgon,2839,-30.49687,146.88414
New South Wales,NSW,Goodooga,2838,-29.31075,147.44102
New South Wales,NSW,Talawanta,2839,-29.57769,147.0547
New South Wales,NSW,The Marra,2831,-30.81053,147.23112
New South Wales,NSW,Weilmoringle,2839,-29.21763,146.81913
New South Wales,NSW,Broken Hill,2880,-32.35272,141.62697
New South Wales,NSW,Burwood (NSW),2134,-33.87838,151.10412
New South Wales,NSW,Burwood Heights,2136,-33.8894,151.10403
New South Wales,NSW,Croydon (NSW),2132,-33.88062,151.1169
New South Wales,NSW,Croydon Park (NSW),2133,-33.89732,151.10289
New South Wales,NSW,Enfield (NSW),2136,-33.89006,151.09611
New South Wales,NSW,Strathfield (NSW),2135,-33.87913,151.08118
New South Wales,NSW,Bangalow,2479,-28.68063,153.52403
New South Wales,NSW,Billinudgel,2483,-28.50534,153.51363
New South Wales,NSW,Binna Burra (NSW),2479,-28.71177,153.4954
New South Wales,NSW,Booyong,2480,-28.74895,153.4472
New South Wales,NSW,Broken Head,2481,-28.73002,153.59346
New South Wales,NSW,Brunswick Heads,2483,-28.55754,153.54453
New South Wales,NSW,Byron Bay,2481,-28.6469,153.60284
New South Wales,NSW,Clunes (NSW),2480,-28.72557,153.41144
New South Wales,NSW,Coopers Shoot,2479,-28.69261,153.56922
New South Wales,NSW,Coorabell,2479,-28.62759,153.50154
New South Wales,NSW,Eureka (NSW),2480,-28.68676,153.43693
New South Wales,NSW,Ewingsdale,2481,-28.63901,153.55042
New South Wales,NSW,Federal (NSW),2480,-28.65916,153.45262
New South Wales,NSW,Goonengerry,2482,-28.60459,153.43207
New South Wales,NSW,Hayters Hill,2481,-28.6745,153.58406
New South Wales,NSW,Huonbrook,2482,-28.53781,153.36278
New South Wales,NSW,Koonyum Range,2482,-28.54188,153.41082
New South Wales,NSW,Main Arm,2482,-28.50938,153.43931
New South Wales,NSW,McLeods Shoot,2479,-28.65892,153.55714
New South Wales,NSW,Middle Pocket,2483,-28.48804,153.4672
New South Wales,NSW,Montecollum,2482,-28.59208,153.46094
New South Wales,NSW,Mullumbimby,2482,-28.54931,153.49906
New South Wales,NSW,Mullumbimby Creek,2482,-28.55206,153.4467
New South Wales,NSW,Myocum,2481,-28.59788,153.50558
New South Wales,NSW,Nashua,2479,-28.7311,153.45923
New South Wales,NSW,New Brighton,2483,-28.51973,153.55128
New South Wales,NSW,Ocean Shores,2483,-28.50893,153.53202
New South Wales,NSW,Palmwoods (NSW),2482,-28.5133,153.40653
New South Wales,NSW,Possum Creek,2479,-28.6712,153.49287
New South Wales,NSW,Skinners Shoot,2481,-28.65818,153.59053
New South Wales,NSW,South Golden Beach,2483,-28.5004,153.54669
New South Wales,NSW,Suffolk Park,2481,-28.68632,153.60818
New South Wales,NSW,Talofa,2481,-28.67336,153.5561
New South Wales,NSW,The Pocket,2483,-28.50326,153.471
New South Wales,NSW,Tyagarah,2481,-28.60018,153.55582
New South Wales,NSW,Upper Coopers Creek,2482,-28.60301,153.40128
New South Wales,NSW,Upper Main Arm,2482,-28.49079,153.39728
New South Wales,NSW,Upper Wilsons Creek,2482,-28.52686,153.38184
New South Wales,NSW,Wanganui,2482,-28.57002,153.3818
New South Wales,NSW,Wilsons Creek,2482,-28.56413,153.43276
New South Wales,NSW,Wooyung,2483,-28.45121,153.53431
New South Wales,NSW,Yelgun,2483,-28.47992,153.4948
New South Wales,NSW,Amaroo (NSW),2866,-33.15948,148.91946
New South Wales,NSW,Baldry,2867,-32.88142,148.47025
New South Wales,NSW,Belgravia,2800,-33.10567,149.02988
New South Wales,NSW,Bocobra,2865,-33.10446,148.53725
New South Wales,NSW,Boomey,2866,-32.96794,148.96012
New South Wales,NSW,Boree,2800,-33.25073,148.84248
New South Wales,NSW,Borenore,2800,-33.23058,148.95297
New South Wales,NSW,Bowan Park,2864,-33.31864,148.83601
New South Wales,NSW,Byng,2800,-33.34602,149.24058
New South Wales,NSW,Canobolas,2800,-33.35685,149.00882
New South Wales,NSW,Canowindra,2804,-33.53379,148.64101
New South Wales,NSW,Cargo,2800,-33.46067,148.81737
New South Wales,NSW,Clergate,2800,-33.18723,149.11571
New South Wales,NSW,Clifton Grove,2800,-33.24096,149.18515
New South Wales,NSW,Cudal,2864,-33.3232,148.73571
New South Wales,NSW,Cumnock,2867,-32.92957,148.66708
New South Wales,NSW,Emu Swamp,2800,-33.30159,149.19573
New South Wales,NSW,Eugowra,2806,-33.41999,148.35218
New South Wales,NSW,Eurimbla,2867,-32.84864,148.81504
New South Wales,NSW,Four Mile Creek (NSW),2800,-33.42697,148.94203
New South Wales,NSW,Garra,2866,-33.1229,148.75913
New South Wales,NSW,Gooloogong,2805,-33.66383,148.44137
New South Wales,NSW,Gowan,2795,-33.14962,149.35098
New South Wales,NSW,Gumble,2865,-33.08718,148.65481
New South Wales,NSW,Guyong,2798,-33.39739,149.26039
New South Wales,NSW,Kangaroobie,2800,-33.16904,149.04759
New South Wales,NSW,Kerrs Creek,2800,-33.05306,149.10705
New South Wales,NSW,Larras Lee,2866,-32.95858,148.87127
New South Wales,NSW,Lewis Ponds,2800,-33.28461,149.27736
New South Wales,NSW,Lidster,2800,-33.32192,148.92622
New South Wales,NSW,Lower Lewis Ponds,2800,-33.21218,149.24067
New South Wales,NSW,Mandagery,2870,-33.25317,148.46366
New South Wales,NSW,Manildra,2865,-33.21351,148.65261
New South Wales,NSW,March,2800,-33.21067,149.07939
New South Wales,NSW,Molong,2866,-33.11538,148.8671
New South Wales,NSW,Moorbel,2804,-33.56319,148.70315
New South Wales,NSW,Mullion Creek,2800,-33.08893,149.18035
New South Wales,NSW,Murga,2864,-33.35802,148.53618
New South Wales,NSW,Nashdale,2800,-33.30633,149.01005
New South Wales,NSW,Nyrang Creek,2804,-33.54527,148.53312
New South Wales,NSW,Obley,2868,-32.6954,148.46733
New South Wales,NSW,Ophir,2800,-33.13182,149.24021
New South Wales,NSW,Orange,2800,-33.25104,149.06176
New South Wales,NSW,Spring Hill (Cabonne - NSW),2800,-33.40285,149.14668
New South Wales,NSW,Spring Hill (Cabonne - NSW),2500,-34.45441,150.86952
New South Wales,NSW,Spring Terrace,2798,-33.40375,149.08339
New South Wales,NSW,Springside (NSW),2800,-33.38143,149.041
New South Wales,NSW,Summer Hill Creek,2800,-33.20626,149.15508
New South Wales,NSW,Toogong,2864,-33.35859,148.65934
New South Wales,NSW,Vittoria (NSW),2799,-33.41713,149.34886
New South Wales,NSW,Waldegrave,2800,-33.43921,149.04907
New South Wales,NSW,Windera (NSW),2800,-33.2068,149.01884
New South Wales,NSW,Yeoval,2868,-32.75181,148.58257
New South Wales,NSW,Yullundry,2867,-32.8594,148.66962
New South Wales,NSW,Bringelly,2556,-33.94576,150.72523
New South Wales,NSW,Camden,2570,-34.05877,150.69373
New South Wales,NSW,Camden South,2570,-34.08232,150.70072
New South Wales,NSW,Catherine Field,2557,-33.98618,150.76993
New South Wales,NSW,Cawdor (NSW),2570,-34.09589,150.66638
New South Wales,NSW,Cobbitty,2570,-33.99798,150.67997
New South Wales,NSW,Currans Hill,2567,-34.04634,150.77377
New South Wales,NSW,Elderslie (Camden - NSW),2570,-34.0577,150.71508
New South Wales,NSW,Elderslie (Camden - NSW),2335,-32.58276,151.34684
New South Wales,NSW,Ellis Lane,2570,-34.03421,150.679
New South Wales,NSW,Gledswood Hills,2557,-34.0137,150.78383
New South Wales,NSW,Grasmere,2570,-34.05634,150.6729
New South Wales,NSW,Gregory Hills,2557,-34.02724,150.77608
New South Wales,NSW,Harrington Park,2567,-34.02561,150.73523
New South Wales,NSW,Kirkham,2570,-34.03394,150.70955
New South Wales,NSW,Leppington,2179,-33.97634,150.79898
New South Wales,NSW,Mount Annan,2567,-34.06403,150.76318
New South Wales,NSW,Narellan,2567,-34.04378,150.73456
New South Wales,NSW,Narellan Vale,2567,-34.05177,150.74372
New South Wales,NSW,Oran Park,2570,-33.99074,150.74247
New South Wales,NSW,Rossmore (NSW),2557,-33.93653,150.77346
New South Wales,NSW,Smeaton Grange,2567,-34.03721,150.75725
New South Wales,NSW,Spring Farm (NSW),2570,-34.06839,150.72519
New South Wales,NSW,Airds,2560,-34.08593,150.83302
New South Wales,NSW,Ambarvale,2560,-34.089,150.79408
New South Wales,NSW,Bardia,2565,-33.9773,150.86232
New South Wales,NSW,Blair Athol (NSW),2560,-34.06196,150.80158
New South Wales,NSW,Blairmount,2559,-34.05088,150.79444
New South Wales,NSW,Bow Bowing,2566,-34.01729,150.84136
New South Wales,NSW,Bradbury (NSW),2560,-34.08405,150.81805
New South Wales,NSW,Campbelltown (NSW),2560,-34.06338,150.80766
New South Wales,NSW,Claymore,2559,-34.04717,150.81206
New South Wales,NSW,Denham Court,2565,-33.98157,150.8294
New South Wales,NSW,Eagle Vale,2558,-34.03797,150.81128
New South Wales,NSW,Englorie Park,2560,-34.08048,150.79659
New South Wales,NSW,Eschol Park,2558,-34.03422,150.80399
New South Wales,NSW,Gilead,2560,-34.12934,150.7799
New South Wales,NSW,Glen Alpine,2560,-34.08767,150.7719
New South Wales,NSW,Glenfield (NSW),2167,-33.97099,150.89301
New South Wales,NSW,Gregory Hills,2557,-34.02724,150.77608
New South Wales,NSW,Ingleburn,2565,-34.0051,150.8581
New South Wales,NSW,Kearns,2558,-34.01979,150.80135
New South Wales,NSW,Kentlyn,2560,-34.06199,150.86946
New South Wales,NSW,Leumeah,2560,-34.05375,150.83957
New South Wales,NSW,Long Point (Campbelltown - NSW),2564,-34.0115,150.89643
New South Wales,NSW,Long Point (Campbelltown - NSW),2330,-32.56508,151.11737
New South Wales,NSW,Macquarie Fields,2564,-33.99111,150.8917
New South Wales,NSW,Macquarie Links,2565,-33.97953,150.87193
New South Wales,NSW,Menangle Park,2563,-34.10002,150.75682
New South Wales,NSW,Minto,2566,-34.03164,150.84989
New South Wales,NSW,Minto Heights,2566,-34.03359,150.87512
New South Wales,NSW,Raby,2566,-34.02019,150.81645
New South Wales,NSW,Rosemeadow,2560,-34.10624,150.79181
New South Wales,NSW,Ruse,2560,-34.06927,150.83989
New South Wales,NSW,St Andrews (NSW),2566,-34.02451,150.83058
New South Wales,NSW,St Helens Park,2560,-34.1056,150.81488
New South Wales,NSW,Varroville,2566,-34.00405,150.81008
New South Wales,NSW,Wedderburn (NSW),2560,-34.14312,150.8241
New South Wales,NSW,Woodbine (NSW),2560,-34.04484,150.82045
New South Wales,NSW,Abbotsford (NSW),2046,-33.85052,151.12987
New South Wales,NSW,Breakfast Point,2137,-33.84282,151.11092
New South Wales,NSW,Cabarita (NSW),2137,-33.84744,151.11635
New South Wales,NSW,Canada Bay,2046,-33.86462,151.11506
New South Wales,NSW,Chiswick,2046,-33.84987,151.13772
New South Wales,NSW,Concord,2137,-33.85608,151.10677
New South Wales,NSW,Concord West,2138,-33.8435,151.092
New South Wales,NSW,Drummoyne,2047,-33.85205,151.15424
New South Wales,NSW,Five Dock,2046,-33.86665,151.12685
New South Wales,NSW,Liberty Grove,2138,-33.84081,151.08387
New South Wales,NSW,Mortlake (NSW),2137,-33.84052,151.1065
New South Wales,NSW,North Strathfield,2137,-33.85783,151.08877
New South Wales,NSW,Rhodes,2138,-33.83004,151.0887
New South Wales,NSW,Rodd Point,2046,-33.86584,151.14375
New South Wales,NSW,Russell Lea,2046,-33.85841,151.14202
New South Wales,NSW,Strathfield (NSW),2135,-33.87913,151.08118
New South Wales,NSW,Wareemba,2046,-33.85759,151.13219
New South Wales,NSW,Ashbury,2193,-33.90113,151.11777
New South Wales,NSW,Bankstown,2200,-33.91991,151.03125
New South Wales,NSW,Bass Hill,2197,-33.90028,150.99309
New South Wales,NSW,Belfield,2191,-33.90421,151.08616
New South Wales,NSW,Belmore,2192,-33.91942,151.08774
New South Wales,NSW,Beverly Hills,2209,-33.94831,151.07815
New South Wales,NSW,Birrong,2143,-33.89192,151.02094
New South Wales,NSW,Campsie,2194,-33.91457,151.10339
New South Wales,NSW,Canterbury (NSW),2193,-33.913,151.1171
New South Wales,NSW,Chester Hill,2162,-33.88004,150.99733
New South Wales,NSW,Clemton Park,2206,-33.92577,151.10309
New South Wales,NSW,Condell Park,2200,-33.92599,151.00978
New South Wales,NSW,Croydon Park (NSW),2133,-33.89732,151.10289
New South Wales,NSW,Earlwood,2206,-33.92492,151.13127
New South Wales,NSW,East Hills,2213,-33.96119,150.98818
New South Wales,NSW,Georges Hall,2198,-33.90761,150.98902
New South Wales,NSW,Greenacre,2190,-33.8989,151.05729
New South Wales,NSW,Hurlstone Park,2193,-33.91005,151.12854
New South Wales,NSW,Kingsgrove,2208,-33.93971,151.09956
New South Wales,NSW,Lakemba,2195,-33.91825,151.07547
New South Wales,NSW,Lansdowne (Canterbury-Bankstown - NSW),2163,-33.89624,150.97658
New South Wales,NSW,Lansdowne (Canterbury-Bankstown - NSW),2430,-31.75862,152.52051
New South Wales,NSW,Milperra,2214,-33.94109,150.98349
New South Wales,NSW,Mount Lewis,2190,-33.91572,151.05024
New South Wales,NSW,Narwee,2209,-33.9472,151.06843
New South Wales,NSW,Padstow,2211,-33.95023,151.03068
New South Wales,NSW,Padstow Heights,2211,-33.97042,151.03352
New South Wales,NSW,Panania,2213,-33.95493,150.99524
New South Wales,NSW,Picnic Point,2213,-33.97301,151.00632
New South Wales,NSW,Potts Hill,2143,-33.89271,151.03275
New South Wales,NSW,Punchbowl (Canterbury-Bankstown - NSW),2196,-33.92907,151.05159
New South Wales,NSW,Punchbowl (Canterbury-Bankstown - NSW),2460,-29.46289,152.78046
New South Wales,NSW,Regents Park (NSW),2143,-33.88245,151.02748
New South Wales,NSW,Revesby,2212,-33.94767,151.01233
New South Wales,NSW,Revesby Heights,2212,-33.96919,151.01822
New South Wales,NSW,Riverwood,2210,-33.9451,151.05302
New South Wales,NSW,Roselands,2196,-33.93329,151.07526
New South Wales,NSW,Sefton,2162,-33.88742,151.0104
New South Wales,NSW,Villawood,2163,-33.88432,150.98067
New South Wales,NSW,Wiley Park,2195,-33.9234,151.06765
New South Wales,NSW,Yagoona,2199,-33.90422,151.02148
New South Wales,NSW,Benerembah,2680,-34.39946,145.82854
New South Wales,NSW,Binya,2665,-34.15384,146.31382
New South Wales,NSW,Booligal,2711,-33.7322,144.68326
New South Wales,NSW,Boorga,2652,-34.02099,146.01821
New South Wales,NSW,Carrathool,2711,-34.45773,145.45064
New South Wales,NSW,Erigolia,2669,-33.91933,146.3892
New South Wales,NSW,Goolgowi,2652,-33.94636,145.72934
New South Wales,NSW,Gunbar,2711,-33.90552,145.27855
New South Wales,NSW,Hillston,2675,-33.44347,145.39759
New South Wales,NSW,Lake Brewster,2675,-33.45766,145.99433
New South Wales,NSW,Merriwagga,2652,-33.81688,145.67999
New South Wales,NSW,Monia Gap,2675,-33.58536,145.9726
New South Wales,NSW,Mossgiel,2878,-33.28096,144.56349
New South Wales,NSW,Myall Park (NSW),2681,-34.0994,146.14714
New South Wales,NSW,Rankins Springs,2669,-33.784,146.16148
New South Wales,NSW,Roto,2675,-32.96511,145.27693
New South Wales,NSW,Tabbita,2652,-34.09674,145.83302
New South Wales,NSW,Wallanthery,2675,-33.31469,145.87065
New South Wales,NSW,Willbriggie,2680,-34.46214,145.99583
New South Wales,NSW,Yenda (NSW),2681,-34.22789,146.21839
New South Wales,NSW,Alison (Central Coast - NSW),2420,-32.43396,151.77304
New South Wales,NSW,Alison (Central Coast - NSW),2259,-33.26943,151.39805
New South Wales,NSW,Avoca Beach,2251,-33.46746,151.42812
New South Wales,NSW,Bar Point,2083,-33.49817,151.17595
New South Wales,NSW,Bateau Bay,2261,-33.38486,151.47128
New South Wales,NSW,Bensville,2251,-33.49914,151.39045
New South Wales,NSW,Berkeley Vale,2261,-33.34073,151.42855
New South Wales,NSW,Blackwall (NSW),2256,-33.50518,151.33518
New South Wales,NSW,Blue Bay,2261,-33.35427,151.50069
New South Wales,NSW,Blue Haven,2262,-33.21142,151.50349
New South Wales,NSW,Booker Bay,2257,-33.51258,151.34636
New South Wales,NSW,Bouddi,2251,-33.51695,151.40373
New South Wales,NSW,Budgewoi,2262,-33.23957,151.56058
New South Wales,NSW,Buff Point,2262,-33.22787,151.53669
New South Wales,NSW,Bushells Ridge,2259,-33.203,151.46904
New South Wales,NSW,Calga,2250,-33.41255,151.22559
New South Wales,NSW,Canton Beach,2263,-33.2754,151.54578
New South Wales,NSW,Cedar Brush Creek,2259,-33.16276,151.24903
New South Wales,NSW,Central Mangrove,2250,-33.28494,151.25173
New South Wales,NSW,Chain Valley Bay,2259,-33.16376,151.57299
New South Wales,NSW,Charmhaven,2263,-33.2261,151.49301
New South Wales,NSW,Cheero Point,2083,-33.51159,151.19333
New South Wales,NSW,Chittaway Bay,2261,-33.32678,151.44557
New South Wales,NSW,Chittaway Point,2261,-33.32251,151.44816
New South Wales,NSW,Cogra Bay,2083,-33.52184,151.2259
New South Wales,NSW,Copacabana,2251,-33.48638,151.43476
New South Wales,NSW,Daleys Point,2257,-33.50408,151.35585
New South Wales,NSW,Davistown,2251,-33.4847,151.36192
New South Wales,NSW,Dooralong,2259,-33.17548,151.36978
New South Wales,NSW,Doyalson,2262,-33.19446,151.51122
New South Wales,NSW,Doyalson North,2262,-33.18118,151.54394
New South Wales,NSW,Durren Durren,2259,-33.18278,151.39636
New South Wales,NSW,East Gosford,2250,-33.43514,151.35463
New South Wales,NSW,Empire Bay,2257,-33.5035,151.36918
New South Wales,NSW,Erina,2250,-33.43758,151.38853
New South Wales,NSW,Erina Heights,2260,-33.42718,151.40825
New South Wales,NSW,Ettalong Beach,2257,-33.51595,151.33432
New South Wales,NSW,Forresters Beach,2260,-33.40857,151.46938
New South Wales,NSW,Fountaindale,2258,-33.34792,151.40077
New South Wales,NSW,Glenning Valley,2261,-33.35106,151.42212
New South Wales,NSW,Glenworth Valley,2250,-33.40898,151.18237
New South Wales,NSW,Gorokan,2263,-33.25377,151.50567
New South Wales,NSW,Gosford,2250,-33.42389,151.34058
New South Wales,NSW,Green Point (Central Coast - NSW),2251,-33.45321,151.38285
New South Wales,NSW,Green Point (Central Coast - NSW),2251,-33.43968,151.37541
New South Wales,NSW,Green Point (Central Coast - NSW),2428,-32.24853,152.51775
New South Wales,NSW,Green Point (Gosford - NSW),2251,-33.45321,151.38285
New South Wales,NSW,Green Point (Gosford - NSW),2251,-33.43968,151.37541
New South Wales,NSW,Green Point (Gosford - NSW),2428,-32.24853,152.51775
New South Wales,NSW,Greengrove,2250,-33.38016,151.15855
New South Wales,NSW,Gunderman,2775,-33.39827,151.054
New South Wales,NSW,Gwandalan,2259,-33.13958,151.58181
New South Wales,NSW,Halekulani,2262,-33.21772,151.55237
New South Wales,NSW,Halloran,2259,-33.22974,151.43722
New South Wales,NSW,Hamlyn Terrace,2259,-33.25323,151.47277
New South Wales,NSW,Hardys Bay,2257,-33.52699,151.35541
New South Wales,NSW,Holgate,2250,-33.40532,151.40502
New South Wales,NSW,Horsfield Bay,2256,-33.49244,151.30151
New South Wales,NSW,Jilliby,2259,-33.21612,151.36175
New South Wales,NSW,Kangy Angy,2258,-33.32014,151.39749
New South Wales,NSW,Kanwal,2259,-33.26125,151.48444
New South Wales,NSW,Kariong,2250,-33.45559,151.27311
New South Wales,NSW,Kiar,2259,-33.20687,151.44735
New South Wales,NSW,Killarney Vale,2261,-33.36629,151.4607
New South Wales,NSW,Killcare,2257,-33.52117,151.36366
New South Wales,NSW,Killcare Heights,2257,-33.52256,151.37418
New South Wales,NSW,Kincumber,2251,-33.47252,151.40208
New South Wales,NSW,Kincumber South,2251,-33.48389,151.38058
New South Wales,NSW,Kingfisher Shores,2259,-33.17142,151.55715
New South Wales,NSW,Koolewong,2256,-33.46901,151.31642
New South Wales,NSW,Kulnura,2250,-33.1922,151.19863
New South Wales,NSW,Lake Haven,2263,-33.24468,151.50399
New South Wales,NSW,Lake Munmorah,2259,-33.19331,151.5733
New South Wales,NSW,Lemon Tree,2259,-33.13237,151.37192
New South Wales,NSW,Lisarow,2250,-33.38493,151.38492
New South Wales,NSW,Little Jilliby,2259,-33.23385,151.35668
New South Wales,NSW,Little Wobby,2256,-33.54192,151.25367
New South Wales,NSW,Long Jetty,2261,-33.35917,151.48543
New South Wales,NSW,Lower Mangrove,2250,-33.40186,151.13714
New South Wales,NSW,Macmasters Beach,2251,-33.49756,151.40816
New South Wales,NSW,Magenta (NSW),2261,-33.30304,151.53201
New South Wales,NSW,Mangrove Creek,2250,-33.35454,151.12313
New South Wales,NSW,Mangrove Mountain,2250,-33.32463,151.18385
New South Wales,NSW,Mannering Park,2259,-33.16376,151.5404
New South Wales,NSW,Mardi,2259,-33.2924,151.40048
New South Wales,NSW,Marlow,2775,-33.46688,151.16871
New South Wales,NSW,Matcham,2250,-33.4042,151.42473
New South Wales,NSW,Mooney Mooney,2083,-33.5207,151.20462
New South Wales,NSW,Mooney Mooney Creek,2250,-33.46686,151.22362
New South Wales,NSW,Mount Elliot (NSW),2250,-33.40621,151.38521
New South Wales,NSW,Mount White,2250,-33.45198,151.19077
New South Wales,NSW,Narara,2250,-33.39553,151.33681
New South Wales,NSW,Niagara Park,2250,-33.37876,151.34724
New South Wales,NSW,Norah Head,2263,-33.28409,151.56381
New South Wales,NSW,Noraville,2263,-33.27116,151.55658
New South Wales,NSW,North Avoca,2260,-33.45608,151.43598
New South Wales,NSW,North Gosford,2250,-33.41886,151.35564
New South Wales,NSW,Ourimbah,2258,-33.31517,151.32611
New South Wales,NSW,Palm Grove (NSW),2258,-33.31987,151.30346
New South Wales,NSW,Palmdale (NSW),2258,-33.32875,151.36767
New South Wales,NSW,Patonga,2256,-33.53624,151.28004
New South Wales,NSW,Pearl Beach,2256,-33.54226,151.30629
New South Wales,NSW,Peats Ridge,2250,-33.34544,151.2311
New South Wales,NSW,Phegans Bay,2256,-33.48838,151.30872
New South Wales,NSW,Picketts Valley,2251,-33.45573,151.40873
New South Wales,NSW,Point Clare,2250,-33.44017,151.31715
New South Wales,NSW,Point Frederick,2250,-33.44184,151.34373
New South Wales,NSW,Pretty Beach (Central Coast - NSW),2257,-33.52717,151.34781
New South Wales,NSW,Pretty Beach (Central Coast - NSW),2539,-35.57684,150.35481
New South Wales,NSW,Ravensdale,2259,-33.1213,151.30063
New South Wales,NSW,Rocky Point (NSW),2259,-33.29341,151.46955
New South Wales,NSW,San Remo (NSW),2262,-33.21474,151.52049
New South Wales,NSW,Saratoga,2251,-33.47576,151.3525
New South Wales,NSW,Shelly Beach (NSW),2261,-33.36992,151.48476
New South Wales,NSW,Somersby,2250,-33.3755,151.28325
New South Wales,NSW,Spencer,2775,-33.44308,151.12628
New South Wales,NSW,Springfield (Central Coast - NSW),2630,-36.5358,149.12149
New South Wales,NSW,Springfield (Central Coast - NSW),2250,-33.42768,151.372
New South Wales,NSW,St Huberts Island,2257,-33.49514,151.34642
New South Wales,NSW,Summerland Point,2259,-33.14094,151.56682
New South Wales,NSW,Tacoma,2259,-33.2879,151.45824
New South Wales,NSW,Tacoma South,2259,-33.29377,151.45736
New South Wales,NSW,Tascott,2250,-33.45183,151.31618
New South Wales,NSW,Terrigal,2260,-33.44581,151.42873
New South Wales,NSW,The Entrance,2261,-33.34383,151.4961
New South Wales,NSW,The Entrance North,2261,-33.33333,151.50775
New South Wales,NSW,Toowoon Bay,2261,-33.36239,151.49762
New South Wales,NSW,Toukley,2263,-33.25799,151.54324
New South Wales,NSW,Tuggerah,2259,-33.30674,151.42507
New South Wales,NSW,Tuggerawong,2259,-33.28398,151.47386
New South Wales,NSW,Tumbi Umbi,2261,-33.37857,151.42921
New South Wales,NSW,Umina Beach,2257,-33.5194,151.31264
New South Wales,NSW,Wadalba,2259,-33.27231,151.46492
New South Wales,NSW,Wagstaffe,2257,-33.52349,151.34031
New South Wales,NSW,Wallarah,2259,-33.22562,151.46654
New South Wales,NSW,Wamberal,2260,-33.41339,151.43838
New South Wales,NSW,Warnervale,2259,-33.24668,151.43186
New South Wales,NSW,Watanobbi,2259,-33.26813,151.42636
New South Wales,NSW,Wendoree Park,2250,-33.45607,151.16322
New South Wales,NSW,West Gosford,2250,-33.42083,151.32376
New South Wales,NSW,Wondabyne,2256,-33.50089,151.24094
New South Wales,NSW,Woongarrah,2259,-33.24015,151.47632
New South Wales,NSW,Woy Woy,2256,-33.50285,151.29727
New South Wales,NSW,Woy Woy Bay,2256,-33.47078,151.29944
New South Wales,NSW,Wyoming,2250,-33.40534,151.3625
New South Wales,NSW,Wyong,2259,-33.27889,151.43056
New South Wales,NSW,Wyong Creek,2259,-33.25389,151.33763
New South Wales,NSW,Wyongah,2259,-33.27022,151.48554
New South Wales,NSW,Yarramalong,2259,-33.21135,151.25462
New South Wales,NSW,Yattalunga (NSW),2251,-33.46838,151.36601
New South Wales,NSW,Ivanhoe (NSW),2878,-32.70224,144.18213
New South Wales,NSW,Menindee,2879,-32.36855,142.69116
New South Wales,NSW,Mossgiel,2878,-33.28096,144.56349
New South Wales,NSW,Sunset Strip (NSW),2879,-32.27512,142.32385
New South Wales,NSW,Tilpa,2840,-30.99286,144.40759
New South Wales,NSW,White Cliffs,2836,-30.32501,143.11778
New South Wales,NSW,Wilcannia,2836,-31.20982,143.61966
New South Wales,NSW,Aberdare,2325,-32.84063,151.38129
New South Wales,NSW,Abermain,2326,-32.82298,151.43614
New South Wales,NSW,Abernethy,2325,-32.88591,151.40181
New South Wales,NSW,Allandale (NSW),2320,-32.72469,151.41344
New South Wales,NSW,Bellbird,2325,-32.85495,151.31703
New South Wales,NSW,Bellbird Heights,2325,-32.8488,151.33092
New South Wales,NSW,Bishops Bridge,2326,-32.74516,151.46674
New South Wales,NSW,Black Hill (NSW),2322,-32.81921,151.61571
New South Wales,NSW,Branxton,2335,-32.64158,151.35649
New South Wales,NSW,Brunkerville,2323,-32.9533,151.48714
New South Wales,NSW,Buchanan (NSW),2323,-32.82189,151.53112
New South Wales,NSW,Bucketty,2250,-33.10955,151.15408
New South Wales,NSW,Buttai,2323,-32.83168,151.56088
New South Wales,NSW,Cedar Creek (Cessnock - NSW),2325,-32.8355,151.16861
New South Wales,NSW,Cedar Creek (Cessnock - NSW),2484,-28.42118,153.26261
New South Wales,NSW,Cessnock,2325,-32.83348,151.36699
New South Wales,NSW,Cliftleigh,2321,-32.78839,151.51795
New South Wales,NSW,Congewai,2325,-32.96974,151.30144
New South Wales,NSW,Corrabare,2325,-32.94909,151.21988
New South Wales,NSW,Dairy Arm,2325,-33.04921,151.18523
New South Wales,NSW,East Branxton,2335,-32.65641,151.36458
New South Wales,NSW,Ellalong,2325,-32.92948,151.31132
New South Wales,NSW,Elrington,2325,-32.86458,151.42921
New South Wales,NSW,Fernances Crossing,2325,-33.06821,151.11262
New South Wales,NSW,Greta (NSW),2334,-32.69162,151.3859
New South Wales,NSW,Greta Main,2325,-32.88848,151.28436
New South Wales,NSW,Heddon Greta,2321,-32.80705,151.50441
New South Wales,NSW,Kearsley,2325,-32.8504,151.40027
New South Wales,NSW,Keinbah,2320,-32.75621,151.40986
New South Wales,NSW,Kitchener,2325,-32.88207,151.36699
New South Wales,NSW,Kurri Kurri,2327,-32.81462,151.47978
New South Wales,NSW,Laguna,2325,-33.04123,151.01241
New South Wales,NSW,Lovedale,2325,-32.75281,151.3619
New South Wales,NSW,Loxford,2326,-32.79421,151.48844
New South Wales,NSW,Millfield,2325,-32.89371,151.25182
New South Wales,NSW,Mount View,2325,-32.8529,151.26355
New South Wales,NSW,Mount Vincent,2323,-32.93341,151.47865
New South Wales,NSW,Mulbring,2323,-32.89663,151.48544
New South Wales,NSW,Murrays Run,2325,-33.07684,151.17987
New South Wales,NSW,Narone Creek,2325,-32.93644,151.16308
New South Wales,NSW,Neath,2326,-32.82154,151.41539
New South Wales,NSW,North Rothbury,2335,-32.69332,151.34673
New South Wales,NSW,Nulkaba,2325,-32.80439,151.35882
New South Wales,NSW,Paxton,2325,-32.90426,151.28608
New South Wales,NSW,Paynes Crossing,2325,-32.91233,151.04786
New South Wales,NSW,Pelaw Main,2327,-32.83755,151.48265
New South Wales,NSW,Pelton,2325,-32.8805,151.31579
New South Wales,NSW,Pokolbin,2320,-32.75353,151.27834
New South Wales,NSW,Quorrobolong,2325,-32.93446,151.38123
New South Wales,NSW,Richmond Vale,2323,-32.864,151.49818
New South Wales,NSW,Sawyers Gully,2326,-32.77678,151.45062
New South Wales,NSW,Stanford Merthyr,2327,-32.82438,151.49319
New South Wales,NSW,Stockrington,2322,-32.86344,151.57646
New South Wales,NSW,Sweetmans Creek,2325,-32.89103,151.1832
New South Wales,NSW,Watagan,2325,-33.0105,151.20777
New South Wales,NSW,Weston (NSW),2326,-32.81035,151.45624
New South Wales,NSW,Wollombi,2325,-32.96169,151.15414
New South Wales,NSW,Alice,2469,-29.05472,152.58904
New South Wales,NSW,Alumy Creek,2460,-29.64246,152.9576
New South Wales,NSW,Angourie,2464,-29.4688,153.35585
New South Wales,NSW,Ashby (NSW),2463,-29.44047,153.18439
New South Wales,NSW,Ashby Heights,2463,-29.38688,153.1793
New South Wales,NSW,Ashby Island,2463,-29.42357,153.2041
New South Wales,NSW,Banyabba,2460,-29.39278,152.93899
New South Wales,NSW,Barretts Creek,2460,-29.37252,152.75943
New South Wales,NSW,Baryulgil,2460,-29.2222,152.61503
New South Wales,NSW,Billys Creek,2453,-30.16629,152.57405
New South Wales,NSW,Blaxlands Creek,2460,-29.89015,152.79964
New South Wales,NSW,Braunstone,2460,-29.81009,152.94265
New South Wales,NSW,Brooms Head,2463,-29.61591,153.2891
New South Wales,NSW,Brushgrove,2460,-29.56005,153.08705
New South Wales,NSW,Buccarumbi,2460,-29.83387,152.60844
New South Wales,NSW,Bulldog,2469,-29.0325,152.49894
New South Wales,NSW,Calamia,2460,-29.84365,153.1203
New South Wales,NSW,Calliope (NSW),2462,-29.61419,153.07441
New South Wales,NSW,Cangai,2460,-29.47525,152.45002
New South Wales,NSW,Carnham,2460,-29.34849,152.58482
New South Wales,NSW,Carrs Creek,2460,-29.65574,152.92225
New South Wales,NSW,Carrs Island,2460,-29.67304,152.91164
New South Wales,NSW,Carrs Peninsula,2460,-29.65115,152.90581
New South Wales,NSW,Chambigne,2460,-29.77012,152.72187
New South Wales,NSW,Chatsworth (NSW),2469,-29.38934,153.24787
New South Wales,NSW,Clarenza,2460,-29.70042,153.00356
New South Wales,NSW,Clifden,2460,-29.51684,152.94746
New South Wales,NSW,Clouds Creek,2453,-30.09077,152.65204
New South Wales,NSW,Coaldale,2460,-29.39466,152.80533
New South Wales,NSW,Coldstream (NSW),2462,-29.60028,153.11024
New South Wales,NSW,Coombadjha,2460,-29.38598,152.47847
New South Wales,NSW,Coongbar,2469,-29.10812,152.69708
New South Wales,NSW,Copmanhurst,2460,-29.57538,152.79706
New South Wales,NSW,Coutts Crossing,2460,-29.85687,152.89291
New South Wales,NSW,Cowper,2460,-29.57956,153.08927
New South Wales,NSW,Dalmorton,2460,-29.80273,152.47388
New South Wales,NSW,Deep Creek (Clarence Valley - NSW),2460,-29.15318,152.64413
New South Wales,NSW,Deep Creek (Clarence Valley - NSW),2440,-30.96831,152.70964
New South Wales,NSW,Deep Creek (Clarence Valley - NSW),2469,-28.96734,152.68641
New South Wales,NSW,Diggers Camp,2462,-29.8122,153.27338
New South Wales,NSW,Dilkoon,2460,-29.50092,152.97627
New South Wales,NSW,Dundurrabin,2453,-30.14048,152.51949
New South Wales,NSW,Eatonsville,2460,-29.6395,152.82913
New South Wales,NSW,Elland,2460,-29.78072,152.89999
New South Wales,NSW,Ewingar,2469,-29.09105,152.50753
New South Wales,NSW,Fine Flower,2460,-29.38176,152.64827
New South Wales,NSW,Fortis Creek,2460,-29.47313,152.86936
New South Wales,NSW,Gilletts Ridge,2462,-29.63508,153.10881
New South Wales,NSW,Glenreagh,2450,-30.08784,152.95599
New South Wales,NSW,Glenugie,2460,-29.81103,153.03825
New South Wales,NSW,Goodwood Island,2469,-29.38134,153.30719
New South Wales,NSW,Grafton,2460,-29.67476,152.92977
New South Wales,NSW,Great Marlow,2460,-29.64973,152.97267
New South Wales,NSW,Gulmarrad,2463,-29.50024,153.224
New South Wales,NSW,Gurranang,2460,-29.45281,152.97931
New South Wales,NSW,Halfway Creek,2460,-29.93822,153.10077
New South Wales,NSW,Harwood,2465,-29.41289,153.24136
New South Wales,NSW,Heifer Station,2460,-29.44123,152.58703
New South Wales,NSW,Hernani,2453,-30.3078,152.40616
New South Wales,NSW,Ilarwill,2463,-29.48571,153.17514
New South Wales,NSW,Iluka (NSW),2466,-29.39868,153.35727
New South Wales,NSW,Jackadgery,2460,-29.61397,152.53492
New South Wales,NSW,Jacky Bulbin Flat,2463,-29.28112,153.19346
New South Wales,NSW,James Creek,2463,-29.45297,153.23994
New South Wales,NSW,Junction Hill,2460,-29.63666,152.93103
New South Wales,NSW,Kangaroo Creek,2460,-29.97568,152.85282
New South Wales,NSW,Keybarbin,2469,-29.10556,152.61779
New South Wales,NSW,Koolkhan,2460,-29.61671,152.93309
New South Wales,NSW,Kremnos,2460,-29.97508,152.94911
New South Wales,NSW,Kungala,2460,-29.95277,153.03333
New South Wales,NSW,Kyarran,2460,-29.58824,152.97199
New South Wales,NSW,Lanitza,2460,-29.87518,152.9682
New South Wales,NSW,Lavadia,2462,-29.7129,153.06788
New South Wales,NSW,Lawrence (NSW),2460,-29.44243,153.08484
New South Wales,NSW,Levenstrath,2460,-29.82874,152.93292
New South Wales,NSW,Lilydale (NSW),2460,-29.54447,152.66142
New South Wales,NSW,Lionsville,2460,-29.18412,152.50662
New South Wales,NSW,Louisa Creek,2469,-29.01778,152.61222
New South Wales,NSW,Lower Southgate,2460,-29.53783,153.05415
New South Wales,NSW,Maclean,2463,-29.45104,153.21732
New South Wales,NSW,Marengo (NSW),2453,-30.14456,152.41283
New South Wales,NSW,Micalo Island,2464,-29.45091,153.31254
New South Wales,NSW,Minnie Water,2462,-29.74535,153.27049
New South Wales,NSW,Moleville Creek,2460,-29.57306,152.90716
New South Wales,NSW,Mookima Wybra,2469,-29.00683,152.53343
New South Wales,NSW,Moonpar,2453,-30.22208,152.64243
New South Wales,NSW,Mororo,2469,-29.34539,153.19517
New South Wales,NSW,Mountain View (NSW),2460,-29.58794,152.93414
New South Wales,NSW,Mylneford,2460,-29.62035,152.83674
New South Wales,NSW,Newbold,2460,-29.5181,152.69624
New South Wales,NSW,Newton Boyd,2370,-29.7004,152.34086
New South Wales,NSW,Nymboida,2460,-29.95492,152.66498
New South Wales,NSW,Palmers Channel,2463,-29.45952,153.27936
New South Wales,NSW,Palmers Island,2463,-29.432,153.2962
New South Wales,NSW,Pikapene,2469,-29.04791,152.65731
New South Wales,NSW,Pillar Valley,2462,-29.6952,153.15625
New South Wales,NSW,Pulganbar,2460,-29.45711,152.68376
New South Wales,NSW,Punchbowl (Clarence Valley - NSW),2196,-33.92907,151.05159
New South Wales,NSW,Punchbowl (Clarence Valley - NSW),2460,-29.46289,152.78046
New South Wales,NSW,Ramornie,2460,-29.65703,152.69224
New South Wales,NSW,Rushforth,2460,-29.74879,152.85967
New South Wales,NSW,Sandon (NSW),2463,-29.68673,153.31233
New South Wales,NSW,Sandy Crossing,2460,-29.76446,153.09399
New South Wales,NSW,Seelands,2460,-29.62269,152.89484
New South Wales,NSW,Shannondale,2460,-29.79746,152.83599
New South Wales,NSW,Shark Creek,2463,-29.57508,153.22074
New South Wales,NSW,Sherwood (Clarence Valley - NSW),2450,-30.03664,153.04625
New South Wales,NSW,Sherwood (Clarence Valley - NSW),2440,-31.06771,152.71207
New South Wales,NSW,Sherwood (Clarence Valley - NSW),2474,-28.43032,152.7792
New South Wales,NSW,Smiths Creek (Clarence Valley - NSW),2460,-29.4963,152.72652
New South Wales,NSW,Smiths Creek (Clarence Valley - NSW),2474,-28.56225,152.85179
New South Wales,NSW,Smiths Creek (Clarence Valley - NSW),2484,-28.42971,153.37979
New South Wales,NSW,South Arm (Clarence Valley - NSW),2460,-29.51072,153.1691
New South Wales,NSW,South Arm (Clarence Valley - NSW),2449,-30.6965,152.74822
New South Wales,NSW,South Grafton,2460,-29.72693,152.93474
New South Wales,NSW,Southampton (NSW),2460,-29.71451,152.90161
New South Wales,NSW,Southgate,2460,-29.5995,153.00524
New South Wales,NSW,Stockyard Creek (NSW),2460,-29.51509,152.80964
New South Wales,NSW,Swan Creek (NSW),2462,-29.66673,153.00339
New South Wales,NSW,Taloumbi,2463,-29.54493,153.2768
New South Wales,NSW,The Freshwater,2466,-29.34076,153.33538
New South Wales,NSW,The Pinnacles,2460,-29.54538,152.92187
New South Wales,NSW,The Sandon,2463,-29.66652,153.29733
New South Wales,NSW,The Whiteman,2460,-29.6003,152.85822
New South Wales,NSW,Townsend,2463,-29.46315,153.22039
New South Wales,NSW,Trenayr,2460,-29.61397,152.95472
New South Wales,NSW,Tucabia,2462,-29.6573,153.12708
New South Wales,NSW,Tullymorgan,2463,-29.38172,153.10707
New South Wales,NSW,Tyndale,2460,-29.55991,153.15949
New South Wales,NSW,Tyringham,2453,-30.24793,152.49968
New South Wales,NSW,Ulmarra,2462,-29.63884,153.04869
New South Wales,NSW,Upper Copmanhurst,2460,-29.56638,152.74888
New South Wales,NSW,Upper Fine Flower,2460,-29.27652,152.73001
New South Wales,NSW,Warragai Creek,2460,-29.56497,152.97924
New South Wales,NSW,Warregah Island,2469,-29.38755,153.23017
New South Wales,NSW,Waterview,2460,-29.6825,152.90484
New South Wales,NSW,Waterview Heights,2460,-29.68998,152.84875
New South Wales,NSW,Wells Crossing,2460,-29.8961,153.03336
New South Wales,NSW,Whiteman Creek,2460,-29.56123,152.85255
New South Wales,NSW,Winegrove,2460,-29.5487,152.68928
New South Wales,NSW,Wombat Creek (NSW),2460,-29.51774,152.75635
New South Wales,NSW,Woodford Island,2463,-29.50941,153.13488
New South Wales,NSW,Woody Head,2466,-29.36441,153.36788
New South Wales,NSW,Wooli,2462,-29.82987,153.2399
New South Wales,NSW,Wooloweyah,2464,-29.48646,153.31611
New South Wales,NSW,Woombah,2469,-29.31139,153.28181
New South Wales,NSW,Yamba (NSW),2464,-29.43373,153.34213
New South Wales,NSW,Bulla (NSW),2835,-32.03291,144.44018
New South Wales,NSW,Byrock,2831,-30.50387,146.36346
New South Wales,NSW,Canbelego,2835,-31.51903,146.25005
New South Wales,NSW,Cobar,2835,-31.48432,145.79439
New South Wales,NSW,Cubba,2835,-31.42348,145.27324
New South Wales,NSW,Eremerang,2877,-32.60965,146.40021
New South Wales,NSW,Euabalong,2877,-33.02311,146.36863
New South Wales,NSW,Euabalong West,2877,-33.05696,146.39403
New South Wales,NSW,Irymple (NSW),2835,-32.53554,145.44424
New South Wales,NSW,Kerrigundi,2835,-30.98702,145.25758
New South Wales,NSW,Kulwin (NSW),2835,-32.33791,144.84408
New South Wales,NSW,Mount Hope (NSW),2877,-32.71266,145.91906
New South Wales,NSW,Murrin Bridge,2672,-33.20683,146.37092
New South Wales,NSW,Noona,2835,-31.55909,144.78263
New South Wales,NSW,Nymagee,2831,-32.12643,146.04813
New South Wales,NSW,Sandy Creek (Cobar - NSW),2338,-31.82986,150.99078
New South Wales,NSW,Sandy Creek (Cobar - NSW),2835,-31.93305,145.41472
New South Wales,NSW,Tilpa,2840,-30.99286,144.40759
New South Wales,NSW,Tindarey,2835,-31.06545,146.00121
New South Wales,NSW,Arrawarra,2456,-30.05196,153.19134
New South Wales,NSW,Arrawarra Headland,2456,-30.06718,153.19581
New South Wales,NSW,Boambee,2450,-30.33287,153.0587
New South Wales,NSW,Boambee East,2452,-30.34564,153.07849
New South Wales,NSW,Bonville,2450,-30.37794,153.01962
New South Wales,NSW,Brooklana,2450,-30.29743,152.89102
New South Wales,NSW,Bucca (NSW),2450,-30.166,153.09095
New South Wales,NSW,Bundagen,2454,-30.41188,153.06142
New South Wales,NSW,Coffs Harbour,2450,-30.30894,153.09979
New South Wales,NSW,Coramba,2450,-30.19808,153.03705
New South Wales,NSW,Corindi Beach,2456,-30.01995,153.18122
New South Wales,NSW,Dirty Creek,2456,-29.99381,153.14901
New South Wales,NSW,Emerald Beach,2456,-30.17688,153.19338
New South Wales,NSW,Halfway Creek,2460,-29.93822,153.10077
New South Wales,NSW,Karangi,2450,-30.23894,153.05264
New South Wales,NSW,Korora,2450,-30.25025,153.11523
New South Wales,NSW,Lowanna,2450,-30.17612,152.89697
New South Wales,NSW,Moonee Beach,2450,-30.1956,153.14924
New South Wales,NSW,Mullaway,2456,-30.08145,153.19704
New South Wales,NSW,Nana Glen,2450,-30.13491,153.01178
New South Wales,NSW,North Boambee Valley,2450,-30.31118,153.0728
New South Wales,NSW,Red Rock,2456,-29.99552,153.22373
New South Wales,NSW,Safety Beach (NSW),2456,-30.0928,153.19828
New South Wales,NSW,Sandy Beach,2456,-30.14525,153.192
New South Wales,NSW,Sapphire Beach,2450,-30.23014,153.14701
New South Wales,NSW,Sawtell,2452,-30.36655,153.09205
New South Wales,NSW,Toormina,2452,-30.35428,153.08798
New South Wales,NSW,Ulong,2450,-30.23938,152.8888
New South Wales,NSW,Upper Corindi,2456,-30.04958,153.1196
New South Wales,NSW,Upper Orara,2450,-30.28272,152.99512
New South Wales,NSW,Woolgoolga,2456,-30.09434,153.16451
New South Wales,NSW,Ardlethan,2665,-34.33458,146.84248
New South Wales,NSW,Beckom,2665,-34.28041,147.00069
New South Wales,NSW,Berry Jerry,2701,-34.71067,147.23856
New South Wales,NSW,Coolamon,2701,-34.79407,147.19863
New South Wales,NSW,Cowabbie,2652,-34.57763,146.97163
New South Wales,NSW,Ganmain,2702,-34.80861,147.00972
New South Wales,NSW,Marrar,2652,-34.84374,147.34018
New South Wales,NSW,Matong,2652,-34.77152,146.91205
New South Wales,NSW,Methul,2701,-34.61704,147.10569
New South Wales,NSW,Murrulebale,2652,-34.70496,147.4109
New South Wales,NSW,Rannock,2701,-34.60967,147.27486
New South Wales,NSW,Walleroobie,2665,-34.4952,147.02773
New South Wales,NSW,Billeroy,2829,-30.61437,148.45321
New South Wales,NSW,Black Hollow,2828,-31.11667,148.86499
New South Wales,NSW,Bourbah,2828,-31.24838,148.16063
New South Wales,NSW,Carinda,2831,-30.38246,147.61197
New South Wales,NSW,Combara,2829,-31.15389,148.30914
New South Wales,NSW,Conimbia,2829,-30.68181,148.02618
New South Wales,NSW,Coonamble,2829,-30.94718,148.30585
New South Wales,NSW,Gilgooma,2829,-30.69272,148.5753
New South Wales,NSW,Gulargambone,2828,-31.28182,148.48544
New South Wales,NSW,Gungalman,2829,-30.50274,147.9832
New South Wales,NSW,Macquarie Marshes,2831,-30.68879,147.62015
New South Wales,NSW,Magometon,2829,-31.02463,148.63298
New South Wales,NSW,Mount Tenandra,2828,-31.20809,148.81733
New South Wales,NSW,Nebea,2829,-30.89903,148.56079
New South Wales,NSW,Pine Grove (NSW),2829,-30.87857,148.68364
New South Wales,NSW,Quambone,2831,-30.90247,147.84833
New South Wales,NSW,Quanda,2828,-31.10752,148.72734
New South Wales,NSW,Teridgerie,2829,-30.8928,148.90081
New South Wales,NSW,Tooloon,2829,-31.00523,148.16608
New South Wales,NSW,Urawilkie,2829,-30.68832,148.71096
New South Wales,NSW,Wingadee,2829,-30.52058,148.27042
New South Wales,NSW,Billimari,2804,-33.67577,148.61579
New South Wales,NSW,Bumbaldry,2794,-33.87059,148.41252
New South Wales,NSW,Canowindra,2804,-33.53379,148.64101
New South Wales,NSW,Cowra,2794,-33.85029,148.63514
New South Wales,NSW,Darbys Falls,2793,-33.90572,148.84997
New South Wales,NSW,Gooloogong,2805,-33.66383,148.44137
New South Wales,NSW,Koorawatha,2807,-34.01181,148.60019
New South Wales,NSW,Mandurama,2792,-33.65929,148.99372
New South Wales,NSW,Neville,2799,-33.74508,149.2033
New South Wales,NSW,Roseberg,2793,-33.86214,149.05373
New South Wales,NSW,Wattamondara,2794,-33.94385,148.58409
New South Wales,NSW,Woodstock (Cowra - NSW),2793,-33.77408,148.87182
New South Wales,NSW,Woodstock (Cowra - NSW),2360,-29.73915,151.35577
New South Wales,NSW,Woodstock (Cowra - NSW),2538,-35.35239,150.40655
New South Wales,NSW,Wyangala,2808,-33.98038,148.94794
New South Wales,NSW,Auburn (NSW),2144,-33.85787,151.02827
New South Wales,NSW,Berala,2141,-33.87461,151.03345
New South Wales,NSW,Chester Hill,2162,-33.88004,150.99733
New South Wales,NSW,Fairfield (NSW),2165,-33.86904,150.95102
New South Wales,NSW,Girraween (NSW),2145,-33.80002,150.94399
New South Wales,NSW,Granville (NSW),2142,-33.83592,151.00745
New South Wales,NSW,Greystanes,2145,-33.82378,150.93855
New South Wales,NSW,Guildford (NSW),2161,-33.85861,150.98884
New South Wales,NSW,Guildford West,2161,-33.84826,150.96403
New South Wales,NSW,Holroyd,2142,-33.83016,150.99863
New South Wales,NSW,Lidcombe,2141,-33.86491,151.04789
New South Wales,NSW,Mays Hill,2145,-33.8212,150.98881
New South Wales,NSW,Merrylands,2160,-33.83511,150.98511
New South Wales,NSW,Merrylands West,2160,-33.83772,150.96755
New South Wales,NSW,Pemulwuy,2145,-33.82108,150.92398
New South Wales,NSW,Pendle Hill,2145,-33.80402,150.95535
New South Wales,NSW,Regents Park (NSW),2143,-33.88245,151.02748
New South Wales,NSW,Smithfield (NSW),2164,-33.84836,150.93847
New South Wales,NSW,South Granville,2142,-33.85869,151.01088
New South Wales,NSW,South Wentworthville,2145,-33.82166,150.97206
New South Wales,NSW,Toongabbie (NSW),2146,-33.79196,150.9468
New South Wales,NSW,Wentworthville,2145,-33.80641,150.96973
New South Wales,NSW,Westmead,2145,-33.80918,150.98696
New South Wales,NSW,Woodpark,2164,-33.84137,150.96126
New South Wales,NSW,Alison (Dungog - NSW),2420,-32.43396,151.77304
New South Wales,NSW,Alison (Dungog - NSW),2259,-33.26943,151.39805
New South Wales,NSW,Allynbrook,2311,-32.34998,151.55131
New South Wales,NSW,Bandon Grove,2420,-32.27578,151.68893
New South Wales,NSW,Bendolba,2420,-32.34933,151.73101
New South Wales,NSW,Bingleburra,2311,-32.37624,151.61594
New South Wales,NSW,Brookfield (NSW),2420,-32.51276,151.75466
New South Wales,NSW,Cambra,2420,-32.44122,151.86997
New South Wales,NSW,Carrabolla,2311,-32.17309,151.39358
New South Wales,NSW,Chichester (NSW),2420,-32.16565,151.63199
New South Wales,NSW,Clarence Town,2321,-32.59227,151.77888
New South Wales,NSW,Dungog,2420,-32.40248,151.75277
New South Wales,NSW,East Gresford,2311,-32.41426,151.56219
New South Wales,NSW,Eccleston,2311,-32.25609,151.48406
New South Wales,NSW,Fishers Hill,2421,-32.48988,151.54106
New South Wales,NSW,Flat Tops,2420,-32.44722,151.8098
New South Wales,NSW,Fosterton,2420,-32.34228,151.76837
New South Wales,NSW,Glen Martin,2321,-32.53427,151.84366
New South Wales,NSW,Glen Oak,2320,-32.60263,151.71469
New South Wales,NSW,Glen William,2321,-32.50955,151.7958
New South Wales,NSW,Gresford,2311,-32.41512,151.49665
New South Wales,NSW,Halton,2311,-32.28988,151.53984
New South Wales,NSW,Hanleys Creek,2420,-32.41857,151.68529
New South Wales,NSW,Hilldale,2420,-32.49554,151.63735
New South Wales,NSW,Lewinsbrook,2311,-32.43604,151.59875
New South Wales,NSW,Lostock,2311,-32.32586,151.43383
New South Wales,NSW,Main Creek,2420,-32.30582,151.79606
New South Wales,NSW,Marshdale,2420,-32.42739,151.80513
New South Wales,NSW,Martins Creek,2420,-32.55965,151.64327
New South Wales,NSW,Mount Rivers,2311,-32.36684,151.47488
New South Wales,NSW,Munni,2420,-32.30774,151.67512
New South Wales,NSW,Paterson (NSW),2421,-32.58422,151.59831
New South Wales,NSW,Salisbury (NSW),2420,-32.16255,151.53747
New South Wales,NSW,Stroud Hill,2420,-32.37911,151.80912
New South Wales,NSW,Sugarloaf (NSW),2420,-32.38051,151.69161
New South Wales,NSW,Summer Hill (Dungog - NSW),2130,-33.89348,151.1372
New South Wales,NSW,Summer Hill (Dungog - NSW),2421,-32.48778,151.49407
New South Wales,NSW,Tabbil Creek,2420,-32.41772,151.73296
New South Wales,NSW,Torryburn (Dungog - NSW),2421,-32.47376,151.58218
New South Wales,NSW,Torryburn (Dungog - NSW),2358,-30.43786,151.19986
New South Wales,NSW,Underbank,2420,-32.28519,151.60164
New South Wales,NSW,Upper Allyn,2311,-32.1398,151.46591
New South Wales,NSW,Vacy,2421,-32.53341,151.55592
New South Wales,NSW,Wallaringa,2420,-32.45469,151.67595
New South Wales,NSW,Wallarobba,2420,-32.50607,151.70471
New South Wales,NSW,Webbers Creek,2421,-32.58492,151.52196
New South Wales,NSW,Wirragulla,2420,-32.45915,151.73049
New South Wales,NSW,Barratta (NSW),2710,-35.20021,144.5329
New South Wales,NSW,Birganbigil,2710,-35.51821,145.18278
New South Wales,NSW,Blighty,2713,-35.59597,145.30674
New South Wales,NSW,Booroorban,2710,-34.85605,144.73698
New South Wales,NSW,Conargo,2710,-35.24861,145.17088
New South Wales,NSW,Coree,2710,-35.29743,145.49809
New South Wales,NSW,Deniliquin,2710,-35.54781,144.88599
New South Wales,NSW,Hartwood,2710,-35.33948,145.34204
New South Wales,NSW,Lindifferon,2710,-35.39586,145.17515
New South Wales,NSW,Logie Brae,2713,-35.46619,145.50682
New South Wales,NSW,Mabins Well,2716,-34.89592,145.51933
New South Wales,NSW,Mayrung,2710,-35.46868,145.31627
New South Wales,NSW,Moonbria,2710,-35.11503,145.44116
New South Wales,NSW,Morago,2710,-35.35325,144.7071
New South Wales,NSW,Moulamein,2733,-35.00133,144.13333
New South Wales,NSW,Myrtle Park,2713,-35.54843,145.44411
New South Wales,NSW,Pine Lodge (NSW),2714,-35.66524,145.42741
New South Wales,NSW,Pretty Pine,2710,-35.38482,144.85749
New South Wales,NSW,Steam Plains,2710,-34.96491,145.28813
New South Wales,NSW,Stud Park,2710,-35.37895,144.94721
New South Wales,NSW,Tuppal,2714,-35.6874,145.29767
New South Wales,NSW,Wandook,2710,-35.41962,145.02721
New South Wales,NSW,Wanganella,2710,-35.11424,144.7099
New South Wales,NSW,Warragoon,2710,-35.61202,145.13393
New South Wales,NSW,Akolele,2546,-36.34959,150.0749
New South Wales,NSW,Batehaven,2536,-35.7355,150.20024
New South Wales,NSW,Batemans Bay,2536,-35.70864,150.16147
New South Wales,NSW,Belowra,2545,-36.10093,149.68513
New South Wales,NSW,Benandarah,2536,-35.64825,150.2155
New South Wales,NSW,Bergalia,2537,-35.98126,150.08965
New South Wales,NSW,Bimbimbie,2536,-35.8386,150.11675
New South Wales,NSW,Bingie,2537,-36.02063,150.14516
New South Wales,NSW,Bodalla,2545,-36.09698,149.99067
New South Wales,NSW,Broulee,2537,-35.85605,150.15592
New South Wales,NSW,Buckenbowra,2536,-35.679,149.98317
New South Wales,NSW,Cadgee (NSW),2545,-36.15819,149.90644
New South Wales,NSW,Catalina,2536,-35.72985,150.18541
New South Wales,NSW,Central Tilba,2546,-36.30452,150.07709
New South Wales,NSW,Coila,2537,-36.01026,150.09423
New South Wales,NSW,Congo,2537,-35.95653,150.13504
New South Wales,NSW,Corunna,2546,-36.27902,150.1075
New South Wales,NSW,Currowan,2536,-35.57128,150.09759
New South Wales,NSW,Dalmeny,2546,-36.1642,150.11306
New South Wales,NSW,Denhams Beach,2536,-35.75131,150.21219
New South Wales,NSW,Deua River Valley,2537,-35.78602,149.91124
New South Wales,NSW,Dignams Creek,2546,-36.31507,149.97006
New South Wales,NSW,East Lynne,2536,-35.58869,150.27326
New South Wales,NSW,Eurobodalla,2545,-36.16624,149.95402
New South Wales,NSW,Guerilla Bay,2536,-35.82989,150.22013
New South Wales,NSW,Jeremadra,2536,-35.81351,150.13903
New South Wales,NSW,Kianga (NSW),2546,-36.19002,150.07702
New South Wales,NSW,Kiora,2537,-35.90517,150.01513
New South Wales,NSW,Lilli Pilli (Eurobodalla - NSW),2536,-35.77218,150.22262
New South Wales,NSW,Lilli Pilli (Eurobodalla - NSW),2229,-34.06716,151.11552
New South Wales,NSW,Long Beach,2536,-35.69311,150.22744
New South Wales,NSW,Maloneys Beach,2536,-35.70162,150.25412
New South Wales,NSW,Malua Bay,2536,-35.78925,150.21185
New South Wales,NSW,Meringo,2537,-35.9818,150.14054
New South Wales,NSW,Merricumbene,2622,-35.73096,149.87133
New South Wales,NSW,Mogendoura,2537,-35.85705,150.03581
New South Wales,NSW,Mogo (Eurobodalla - NSW),2536,-35.8033,150.11156
New South Wales,NSW,Mogo (Eurobodalla - NSW),2850,-32.25628,150.02134
New South Wales,NSW,Moruya,2537,-35.90796,150.09408
New South Wales,NSW,Moruya Heads,2537,-35.92869,150.13737
New South Wales,NSW,Mossy Point,2537,-35.83235,150.17885
New South Wales,NSW,Mystery Bay,2546,-36.31121,150.12675
New South Wales,NSW,Narooma,2546,-36.24236,150.09467
New South Wales,NSW,Nelligen,2536,-35.6736,150.11473
New South Wales,NSW,Neringla,2622,-35.75771,149.7879
New South Wales,NSW,Nerrigundah,2545,-36.12737,149.84866
New South Wales,NSW,North Batemans Bay,2536,-35.6892,150.19267
New South Wales,NSW,North Narooma,2546,-36.20966,150.10486
New South Wales,NSW,Potato Point,2545,-36.08119,150.1218
New South Wales,NSW,Rosedale (NSW),2536,-35.81541,150.21807
New South Wales,NSW,Runnyford,2536,-35.72314,150.11308
New South Wales,NSW,South Durras,2536,-35.65651,150.28601
New South Wales,NSW,Sunshine Bay,2536,-35.74498,150.20907
New South Wales,NSW,Surf Beach (NSW),2536,-35.76253,150.2036
New South Wales,NSW,Surfside,2536,-35.6951,150.19908
New South Wales,NSW,Tilba Tilba,2546,-36.33499,150.04049
New South Wales,NSW,Tinpot,2546,-36.24472,149.89143
New South Wales,NSW,Tomakin,2537,-35.82282,150.18997
New South Wales,NSW,Turlinjah,2537,-36.02915,150.07533
New South Wales,NSW,Tuross Head,2537,-36.03509,150.11673
New South Wales,NSW,Wamban,2537,-35.96958,149.98296
New South Wales,NSW,Woodlands (Eurobodalla - NSW),2536,-35.80101,150.18354
New South Wales,NSW,Woodlands (Eurobodalla - NSW),2575,-34.40821,150.39954
New South Wales,NSW,Abbotsbury,2176,-33.86513,150.85951
New South Wales,NSW,Bonnyrigg,2177,-33.89333,150.88877
New South Wales,NSW,Bonnyrigg Heights,2177,-33.89103,150.87006
New South Wales,NSW,Bossley Park,2176,-33.86202,150.88392
New South Wales,NSW,Cabramatta,2166,-33.89828,150.93609
New South Wales,NSW,Cabramatta West,2166,-33.89292,150.91194
New South Wales,NSW,Canley Heights,2166,-33.88198,150.9227
New South Wales,NSW,Canley Vale,2166,-33.88495,150.95058
New South Wales,NSW,Carramar (NSW),2163,-33.88405,150.96381
New South Wales,NSW,Cecil Park,2178,-33.87579,150.83267
New South Wales,NSW,Edensor Park,2176,-33.87884,150.87759
New South Wales,NSW,Fairfield (NSW),2165,-33.86904,150.95102
New South Wales,NSW,Fairfield East,2165,-33.87535,150.97324
New South Wales,NSW,Fairfield Heights,2165,-33.86713,150.94148
New South Wales,NSW,Fairfield West,2165,-33.87024,150.92391
New South Wales,NSW,Greenfield Park,2176,-33.87537,150.89276
New South Wales,NSW,Horsley Park,2175,-33.8426,150.84816
New South Wales,NSW,Lansvale,2166,-33.89877,150.96071
New South Wales,NSW,Mount Pritchard,2170,-33.90435,150.90114
New South Wales,NSW,Old Guildford,2161,-33.86384,150.98472
New South Wales,NSW,Prairiewood,2176,-33.86527,150.90773
New South Wales,NSW,Smithfield (NSW),2164,-33.84836,150.93847
New South Wales,NSW,St Johns Park,2176,-33.88259,150.90215
New South Wales,NSW,Villawood,2163,-33.88432,150.98067
New South Wales,NSW,Wakeley,2176,-33.87381,150.90868
New South Wales,NSW,Wetherill Park,2164,-33.84214,150.89843
New South Wales,NSW,Yennora,2161,-33.86167,150.96783
New South Wales,NSW,Balldale,2646,-35.80368,146.52162
New South Wales,NSW,Boree Creek,2652,-35.06921,146.52341
New South Wales,NSW,Collendina,2646,-35.97143,146.22576
New South Wales,NSW,Coreen,2646,-35.74586,146.31434
New South Wales,NSW,Corowa,2646,-35.99338,146.36285
New South Wales,NSW,Daysdale,2646,-35.59552,146.3712
New South Wales,NSW,Hopefield,2646,-35.91697,146.46066
New South Wales,NSW,Howlong,2643,-35.95995,146.61425
New South Wales,NSW,Lowesdale,2646,-35.84545,146.33217
New South Wales,NSW,Morundah,2700,-34.99595,146.22667
New South Wales,NSW,Mulwala,2647,-35.91969,146.05748
New South Wales,NSW,Oaklands,2646,-35.49331,146.15109
New South Wales,NSW,Rand,2642,-35.57023,146.52287
New South Wales,NSW,Redlands,2646,-35.92089,146.34002
New South Wales,NSW,Rennie,2646,-35.8177,146.12748
New South Wales,NSW,Ringwood (NSW),2646,-35.87407,146.23552
New South Wales,NSW,Sanger,2646,-35.67286,146.13835
New South Wales,NSW,Savernake,2646,-35.73554,146.02409
New South Wales,NSW,Urana,2645,-35.35011,146.21288
New South Wales,NSW,Bedgerabong,2871,-33.33169,147.7056
New South Wales,NSW,Cookamidgera,2870,-33.2371,148.30484
New South Wales,NSW,Corinella (NSW),2871,-33.54885,147.55321
New South Wales,NSW,Eugowra,2806,-33.41999,148.35218
New South Wales,NSW,Forbes (NSW),2871,-33.38993,148.02223
New South Wales,NSW,Garema,2871,-33.57931,147.9136
New South Wales,NSW,Gunning Gap,2871,-33.2645,147.73691
New South Wales,NSW,Jemalong,2871,-33.44214,147.7215
New South Wales,NSW,Mandagery,2870,-33.25317,148.46366
New South Wales,NSW,Mulguthrie,2877,-33.17607,147.37729
New South Wales,NSW,Mulyandry,2871,-33.56448,148.16586
New South Wales,NSW,Ooma,2871,-33.63854,148.04965
New South Wales,NSW,Ootha,2875,-33.12461,147.4652
New South Wales,NSW,Paytens Bridge,2871,-33.56011,148.31784
New South Wales,NSW,Warroo (NSW),2871,-33.32038,147.53624
New South Wales,NSW,Wirrinya,2871,-33.60605,147.72363
New South Wales,NSW,Yarrabandai,2875,-33.1449,147.57276
New South Wales,NSW,Allawah,2218,-33.97295,151.11424
New South Wales,NSW,Beverley Park,2217,-33.97729,151.13054
New South Wales,NSW,Beverly Hills,2209,-33.94831,151.07815
New South Wales,NSW,Blakehurst,2221,-33.99061,151.10947
New South Wales,NSW,Carlton (NSW),2218,-33.97075,151.1214
New South Wales,NSW,Carss Park,2221,-33.98679,151.11717
New South Wales,NSW,Connells Point,2221,-33.98536,151.09431
New South Wales,NSW,Hurstville,2220,-33.96268,151.1006
New South Wales,NSW,Hurstville Grove,2220,-33.97709,151.09318
New South Wales,NSW,Kingsgrove,2208,-33.93971,151.09956
New South Wales,NSW,Kogarah,2217,-33.96814,151.13537
New South Wales,NSW,Kogarah Bay,2217,-33.9826,151.12424
New South Wales,NSW,Kyle Bay,2221,-33.98937,151.10096
New South Wales,NSW,Lugarno,2210,-33.98105,151.04426
New South Wales,NSW,Mortdale,2223,-33.96908,151.07198
New South Wales,NSW,Narwee,2209,-33.9472,151.06843
New South Wales,NSW,Oatley,2223,-33.98228,151.07156
New South Wales,NSW,Peakhurst,2210,-33.96181,151.05799
New South Wales,NSW,Peakhurst Heights,2210,-33.97527,151.05493
New South Wales,NSW,Penshurst (NSW),2222,-33.96482,151.08475
New South Wales,NSW,Ramsgate,2217,-33.98259,151.13977
New South Wales,NSW,Riverwood,2210,-33.9451,151.05302
New South Wales,NSW,Sans Souci,2219,-33.99452,151.13524
New South Wales,NSW,South Hurstville,2221,-33.97767,151.10598
New South Wales,NSW,Armatree,2828,-31.45443,148.49814
New South Wales,NSW,Balladoran,2822,-31.88145,148.61751
New South Wales,NSW,Bearbong,2827,-31.66393,148.88117
New South Wales,NSW,Biddon,2827,-31.55309,148.79048
New South Wales,NSW,Breelong,2827,-31.80649,148.7931
New South Wales,NSW,Collie (NSW),2827,-31.69326,148.28925
New South Wales,NSW,Curban,2827,-31.52839,148.57503
New South Wales,NSW,Gilgandra,2827,-31.71245,148.61837
New South Wales,NSW,Kickabil,2830,-31.90389,148.40169
New South Wales,NSW,Mendooran,2842,-31.78699,149.0777
New South Wales,NSW,Merrigal,2827,-31.48831,148.26062
New South Wales,NSW,Tonderburine,2817,-31.33092,148.77543
New South Wales,NSW,Tooraweenah,2817,-31.52499,148.93217
New South Wales,NSW,Warrumbungle,2828,-31.31703,148.97867
New South Wales,NSW,Bald Nob,2370,-29.67343,151.99225
New South Wales,NSW,Ben Lomond (NSW),2365,-30.00596,151.66567
New South Wales,NSW,Capoompeta,2371,-29.38817,152.04459
New South Wales,NSW,Deepwater (NSW),2371,-29.44428,151.95257
New South Wales,NSW,Diehard,2370,-29.70092,152.0916
New South Wales,NSW,Dundee,2370,-29.57044,151.91565
New South Wales,NSW,Emmaville,2371,-29.37325,151.5496
New South Wales,NSW,Furracabad,2370,-29.82256,151.65873
New South Wales,NSW,Glen Elgin,2370,-29.57595,152.12034
New South Wales,NSW,Glen Innes,2370,-29.71897,151.69467
New South Wales,NSW,Glencoe (NSW),2365,-29.93231,151.71024
New South Wales,NSW,Kingsgate,2370,-29.79714,152.08819
New South Wales,NSW,Kookabookra,2370,-30.02076,152.03276
New South Wales,NSW,Lambs Valley (Glen Innes Severn - NSW),2370,-29.81979,151.7928
New South Wales,NSW,Lambs Valley (Glen Innes Severn - NSW),2335,-32.56809,151.46439
New South Wales,NSW,Matheson,2370,-29.76526,151.56542
New South Wales,NSW,Maybole,2365,-29.90457,151.56739
New South Wales,NSW,Moggs Swamp,2370,-29.93077,152.05049
New South Wales,NSW,Mount Mitchell,2365,-29.94191,151.83376
New South Wales,NSW,Newton Boyd,2370,-29.7004,152.34086
New South Wales,NSW,Pinkett,2370,-29.89269,151.95934
New South Wales,NSW,Rangers Valley,2370,-29.55765,151.76302
New South Wales,NSW,Red Range,2370,-29.79528,151.92852
New South Wales,NSW,Reddestone,2370,-29.58149,151.66835
New South Wales,NSW,Shannon Vale,2370,-29.69512,151.86737
New South Wales,NSW,Stonehenge (NSW),2370,-29.82985,151.72488
New South Wales,NSW,Torrington (NSW),2371,-29.28926,151.67634
New South Wales,NSW,Wellingrove,2370,-29.57228,151.49017
New South Wales,NSW,Wellington Vale,2371,-29.42289,151.72708
New South Wales,NSW,Yarrowford,2370,-29.6385,151.75159
New South Wales,NSW,Baw Baw (NSW),2580,-34.71011,149.64544
New South Wales,NSW,Boxers Creek,2580,-34.77114,149.83899
New South Wales,NSW,Brayton,2579,-34.63064,150.01339
New South Wales,NSW,Brisbane Grove,2580,-34.7962,149.72127
New South Wales,NSW,Bungonia,2580,-34.87851,149.96043
New South Wales,NSW,Carrick (NSW),2580,-34.69751,149.89794
New South Wales,NSW,Currawang,2580,-34.97808,149.53976
New South Wales,NSW,Goulburn,2580,-34.7447,149.72375
New South Wales,NSW,Greenwich Park,2580,-34.60049,149.9162
New South Wales,NSW,Gundary,2580,-34.84009,149.78664
New South Wales,NSW,Kingsdale,2580,-34.67093,149.68337
New South Wales,NSW,Lake Bathurst,2580,-35.01691,149.68045
New South Wales,NSW,Lower Boro,2580,-35.13713,149.77522
New South Wales,NSW,Marulan,2579,-34.7189,149.98914
New South Wales,NSW,Middle Arm,2580,-34.59754,149.72774
New South Wales,NSW,Mummel,2580,-34.66012,149.56271
New South Wales,NSW,Oallen,2622,-35.15589,149.95847
New South Wales,NSW,Parkesbourne,2580,-34.75893,149.54743
New South Wales,NSW,Pomeroy,2580,-34.69206,149.5204
New South Wales,NSW,Quialigo,2580,-34.9334,149.77255
New South Wales,NSW,Run-o-Waters,2580,-34.76877,149.6711
New South Wales,NSW,Tallong,2579,-34.75257,150.18629
New South Wales,NSW,Tarago,2580,-35.10715,149.58884
New South Wales,NSW,Tarlo,2580,-34.6481,149.8216
New South Wales,NSW,Tirrannaville,2580,-34.87497,149.67465
New South Wales,NSW,Towrang,2580,-34.6946,149.83055
New South Wales,NSW,Wayo,2580,-34.62658,149.61638
New South Wales,NSW,Windellama,2580,-35.02293,149.93061
New South Wales,NSW,Wollogorang,2581,-34.85675,149.52051
New South Wales,NSW,Woodhouselee,2580,-34.57313,149.63517
New South Wales,NSW,Yarra,2580,-34.81885,149.60853
New South Wales,NSW,Alma Park,2659,-35.59954,146.79644
New South Wales,NSW,Balldale,2646,-35.80368,146.52162
New South Wales,NSW,Bowna,2644,-35.9807,147.15105
New South Wales,NSW,Brocklesby,2642,-35.81351,146.66071
New South Wales,NSW,Bungowannah,2640,-36.00006,146.76758
New South Wales,NSW,Burrumbuttock,2642,-35.82828,146.79307
New South Wales,NSW,Carabost,2650,-35.61091,147.72245
New South Wales,NSW,Cookardinia,2650,-35.56422,147.25084
New South Wales,NSW,Coppabella (NSW),2644,-35.75109,147.75088
New South Wales,NSW,Culcairn,2660,-35.68554,147.00136
New South Wales,NSW,Gerogery,2642,-35.84121,146.99395
New South Wales,NSW,Glenellen,2642,-35.88636,146.90536
New South Wales,NSW,Goombargana,2646,-35.74229,146.5755
New South Wales,NSW,Henty (NSW),2658,-35.52369,147.03511
New South Wales,NSW,Holbrook,2644,-35.68363,147.29047
New South Wales,NSW,Humula,2652,-35.48608,147.74677
New South Wales,NSW,Jindera,2642,-35.95937,146.88177
New South Wales,NSW,Jingellic,2642,-35.89727,147.68984
New South Wales,NSW,Lankeys Creek,2644,-35.82913,147.62337
New South Wales,NSW,Little Billabong,2644,-35.621,147.51642
New South Wales,NSW,Moorwatha,2640,-35.92288,146.72846
New South Wales,NSW,Morven (Greater Hume Shire - NSW),2370,-29.41917,152.164
New South Wales,NSW,Morven (Greater Hume Shire - NSW),2660,-35.64654,147.15648
New South Wales,NSW,Mountain Creek (NSW),2644,-35.77601,147.14723
New South Wales,NSW,Mullengandra,2644,-35.89571,147.1813
New South Wales,NSW,Rand,2642,-35.57023,146.52287
New South Wales,NSW,Rosewood (Snowy Valleys - NSW),2652,-35.65013,147.8596
New South Wales,NSW,Rosewood (Snowy Valleys - NSW),2446,-31.45762,152.68493
New South Wales,NSW,Table Top,2640,-35.93717,147.02997
New South Wales,NSW,Talmalmo,2640,-35.95778,147.45616
New South Wales,NSW,Walbundrie,2642,-35.6382,146.71116
New South Wales,NSW,Walla Walla,2659,-35.74178,146.87004
New South Wales,NSW,Wantagong,2644,-35.79845,147.4841
New South Wales,NSW,Woomargama,2644,-35.86984,147.27651
New South Wales,NSW,Wymah,2640,-35.98735,147.25224
New South Wales,NSW,Yarara,2644,-35.71475,147.64955
New South Wales,NSW,Beelbangera,2680,-34.2383,146.10727
New South Wales,NSW,Benerembah,2680,-34.39946,145.82854
New South Wales,NSW,Bilbul,2680,-34.28397,146.15673
New South Wales,NSW,Griffith (NSW),2680,-34.27539,146.04315
New South Wales,NSW,Hanwood,2680,-34.35915,146.03358
New South Wales,NSW,Kooba,2680,-34.42599,146.10051
New South Wales,NSW,Lake Wyangan,2680,-34.22637,146.02173
New South Wales,NSW,Myall Park (NSW),2681,-34.0994,146.14714
New South Wales,NSW,Nericon,2680,-34.18277,146.03392
New South Wales,NSW,Tabbita,2652,-34.09674,145.83302
New South Wales,NSW,Tharbogang,2680,-34.26838,145.93796
New South Wales,NSW,Warburn,2680,-34.17355,145.91685
New South Wales,NSW,Warrawidgee,2680,-34.30721,145.73982
New South Wales,NSW,Whitton,2705,-34.53478,146.12753
New South Wales,NSW,Widgelli,2680,-34.36002,146.1486
New South Wales,NSW,Willbriggie,2680,-34.46214,145.99583
New South Wales,NSW,Yenda (NSW),2681,-34.22789,146.21839
New South Wales,NSW,Yoogali,2680,-34.31473,146.09874
New South Wales,NSW,Adjungbilly,2727,-35.03154,148.42182
New South Wales,NSW,Burra Creek,2722,-34.89524,147.99235
New South Wales,NSW,Coolac,2727,-34.89728,148.20172
New South Wales,NSW,Cootamundra,2590,-34.63486,148.03302
New South Wales,NSW,Darbalara,2722,-35.05454,148.25872
New South Wales,NSW,Gobarralong,2727,-34.95651,148.36278
New South Wales,NSW,Gundagai,2722,-35.04477,148.09558
New South Wales,NSW,Jones Creek,2722,-35.00757,148.03731
New South Wales,NSW,Milvale,2594,-34.33051,147.90669
New South Wales,NSW,Mount Adrah,2729,-35.22048,147.90885
New South Wales,NSW,Mundarlo,2729,-35.13887,147.80232
New South Wales,NSW,Muttama,2722,-34.79909,148.13589
New South Wales,NSW,Nangus,2722,-35.01102,147.94615
New South Wales,NSW,South Gundagai,2722,-35.10481,148.12428
New South Wales,NSW,Stockinbingal,2725,-34.44983,147.87135
New South Wales,NSW,Tumblong,2729,-35.14315,147.98166
New South Wales,NSW,Wallendbeen,2588,-34.50396,148.12132
New South Wales,NSW,Blue Vale,2380,-30.82759,150.22046
New South Wales,NSW,Boggabri,2382,-30.70711,150.03657
New South Wales,NSW,Breeza,2381,-31.26607,150.44856
New South Wales,NSW,Caroona,2343,-31.38464,150.41857
New South Wales,NSW,Carroll,2340,-31.0037,150.45052
New South Wales,NSW,Curlewis (NSW),2381,-31.19235,150.25962
New South Wales,NSW,Emerald Hill,2380,-30.86736,150.057
New South Wales,NSW,Ghoolendaadi,2380,-30.93432,149.91263
New South Wales,NSW,Gunnedah,2380,-31.00269,150.22115
New South Wales,NSW,Keepit,2340,-30.85442,150.51491
New South Wales,NSW,Kelvin,2380,-30.83153,150.39239
New South Wales,NSW,Marys Mount,2380,-30.97677,150.01504
New South Wales,NSW,Milroy (Gunnedah - NSW),2380,-31.1345,150.05482
New South Wales,NSW,Milroy (Gunnedah - NSW),2850,-32.59434,149.62312
New South Wales,NSW,Mullaley,2379,-31.15792,149.9051
New South Wales,NSW,Orange Grove (NSW),2380,-30.93302,150.4193
New South Wales,NSW,Piallaway,2342,-31.1219,150.52097
New South Wales,NSW,Premer,2381,-31.47801,149.91956
New South Wales,NSW,Rangari,2380,-30.67318,150.42325
New South Wales,NSW,Spring Ridge,2343,-31.39203,150.22971
New South Wales,NSW,Tambar Springs,2381,-31.34002,149.88741
New South Wales,NSW,Wean,2382,-30.71593,150.26907
New South Wales,NSW,Willala,2382,-30.8454,149.83633
New South Wales,NSW,Back Creek (Gwydir - NSW),2671,-33.84678,147.45639
New South Wales,NSW,Back Creek (Gwydir - NSW),2422,-31.9623,152.04938
New South Wales,NSW,Back Creek (Gwydir - NSW),2390,-30.10689,150.27122
New South Wales,NSW,Back Creek (Gwydir - NSW),2622,-35.34612,149.94415
New South Wales,NSW,Back Creek (Gwydir - NSW),2372,-28.95703,151.70533
New South Wales,NSW,Back Creek (Gwydir - NSW),2484,-28.41034,153.17285
New South Wales,NSW,Balfours Peak,2403,-29.4642,150.77674
New South Wales,NSW,Bangheet,2404,-29.83603,150.42303
New South Wales,NSW,Barraba,2347,-30.38628,150.5729
New South Wales,NSW,Bingara,2404,-29.82476,150.57123
New South Wales,NSW,Blue Nobby,2408,-29.07962,150.64735
New South Wales,NSW,Boonal,2409,-28.75948,150.54044
New South Wales,NSW,Bundarra,2359,-30.09661,151.05996
New South Wales,NSW,Cobbadah,2347,-30.19995,150.56309
New South Wales,NSW,Coolatai,2402,-29.20431,150.73855
New South Wales,NSW,Copeton,2360,-29.90594,150.92619
New South Wales,NSW,Crooble,2400,-29.29121,150.27763
New South Wales,NSW,Croppa Creek,2411,-29.10538,150.30888
New South Wales,NSW,Delungra,2403,-29.6349,150.77077
New South Wales,NSW,Dinoga,2404,-30.00344,150.58537
New South Wales,NSW,Elcombe,2404,-29.8796,150.34328
New South Wales,NSW,Gineroi,2404,-29.71652,150.48773
New South Wales,NSW,Graman,2360,-29.44199,150.88804
New South Wales,NSW,Gravesend,2401,-29.65354,150.34107
New South Wales,NSW,Gulf Creek,2347,-30.1754,150.74182
New South Wales,NSW,Gundamulda,2347,-30.25346,150.72665
New South Wales,NSW,Keera,2404,-30.02856,150.76285
New South Wales,NSW,North Star,2408,-28.91078,150.42075
New South Wales,NSW,Pallal,2404,-29.98177,150.43294
New South Wales,NSW,Pallamallawa,2399,-29.38528,150.19104
New South Wales,NSW,Rocky Creek (Gwydir - NSW),2390,-30.0506,150.19784
New South Wales,NSW,Rocky Creek (Gwydir - NSW),2371,-29.27137,151.34054
New South Wales,NSW,Tulloona,2400,-28.8959,150.07804
New South Wales,NSW,Upper Bingara,2404,-30.07315,150.66093
New South Wales,NSW,Upper Horton,2347,-30.17801,150.33282
New South Wales,NSW,Warialda,2402,-29.39949,150.52265
New South Wales,NSW,Warialda Rail,2402,-29.6373,150.52186
New South Wales,NSW,Whitlow,2404,-29.88622,150.74087
New South Wales,NSW,Yallaroi,2408,-29.15506,150.53832
New South Wales,NSW,Agnes Banks,2753,-33.61656,150.6991
New South Wales,NSW,Berambing,2758,-33.53268,150.44882
New South Wales,NSW,Bilpin,2758,-33.44494,150.55514
New South Wales,NSW,Blaxlands Ridge,2758,-33.47062,150.79739
New South Wales,NSW,Bligh Park,2756,-33.63844,150.80041
New South Wales,NSW,Bowen Mountain,2753,-33.57877,150.6227
New South Wales,NSW,Cattai,2756,-33.54239,150.91777
New South Wales,NSW,Central Colo,2756,-33.4227,150.77606
New South Wales,NSW,Central Macdonald,2775,-33.33581,150.97324
New South Wales,NSW,Clarendon (NSW),2756,-33.61341,150.7896
New South Wales,NSW,Colo (Hawkesbury - NSW),2795,-33.77583,149.26472
New South Wales,NSW,Colo (Hawkesbury - NSW),2756,-33.41666,150.80587
New South Wales,NSW,Colo Heights,2756,-33.29001,150.69933
New South Wales,NSW,Cornwallis,2756,-33.58698,150.79731
New South Wales,NSW,Cumberland Reach,2756,-33.46312,150.89448
New South Wales,NSW,East Kurrajong,2758,-33.50486,150.78003
New South Wales,NSW,Ebenezer (NSW),2756,-33.51676,150.8887
New South Wales,NSW,Fernances,2775,-33.19388,151.01127
New South Wales,NSW,Freemans Reach,2756,-33.5695,150.79358
New South Wales,NSW,Glossodia,2756,-33.53144,150.78782
New South Wales,NSW,Grose Vale,2753,-33.58708,150.66056
New South Wales,NSW,Grose Wold,2753,-33.60019,150.67649
New South Wales,NSW,Higher Macdonald,2775,-33.17123,150.90042
New South Wales,NSW,Hobartville (NSW),2753,-33.6049,150.74286
New South Wales,NSW,Kurmond,2757,-33.54939,150.70123
New South Wales,NSW,Kurrajong,2758,-33.51212,150.70091
New South Wales,NSW,Kurrajong Heights,2758,-33.51924,150.60872
New South Wales,NSW,Kurrajong Hills,2758,-33.5264,150.65598
New South Wales,NSW,Leets Vale,2775,-33.42434,150.9491
New South Wales,NSW,Lower Macdonald,2775,-33.35967,150.97021
New South Wales,NSW,Lower Portland,2756,-33.44193,150.88137
New South Wales,NSW,Maraylya,2765,-33.59439,150.91597
New South Wales,NSW,McGraths Hill,2756,-33.61305,150.84178
New South Wales,NSW,Mellong,2756,-33.09912,150.73538
New South Wales,NSW,Mountain Lagoon,2758,-33.43655,150.61913
New South Wales,NSW,Mulgrave (NSW),2756,-33.62459,150.83173
New South Wales,NSW,North Richmond,2754,-33.56711,150.72199
New South Wales,NSW,Oakville,2765,-33.62342,150.87753
New South Wales,NSW,Pitt Town,2756,-33.58415,150.8703
New South Wales,NSW,Pitt Town Bottoms,2756,-33.58642,150.8459
New South Wales,NSW,Putty,2330,-32.88572,150.68398
New South Wales,NSW,Richmond (NSW),2753,-33.60517,150.75869
New South Wales,NSW,Richmond Lowlands,2753,-33.58118,150.75185
New South Wales,NSW,Sackville,2756,-33.4924,150.87648
New South Wales,NSW,Scheyville,2756,-33.60339,150.89211
New South Wales,NSW,South Windsor,2756,-33.63042,150.79928
New South Wales,NSW,St Albans (NSW),2775,-33.25698,151.0131
New South Wales,NSW,Tennyson (NSW),2754,-33.53448,150.74079
New South Wales,NSW,The Slopes,2754,-33.53304,150.70612
New South Wales,NSW,Upper Colo,2756,-33.41495,150.71649
New South Wales,NSW,Upper Macdonald,2775,-33.25468,150.9118
New South Wales,NSW,Vineyard,2765,-33.64161,150.85208
New South Wales,NSW,Webbs Creek,2775,-33.34096,150.91606
New South Wales,NSW,Wheeny Creek,2758,-33.45694,150.72163
New South Wales,NSW,Wilberforce (NSW),2756,-33.55262,150.85304
New South Wales,NSW,Windsor (NSW),2756,-33.61162,150.82113
New South Wales,NSW,Windsor Downs,2756,-33.65859,150.80821
New South Wales,NSW,Wisemans Ferry,2775,-33.39544,150.98047
New South Wales,NSW,Wrights Creek (NSW),2775,-33.29243,151.03877
New South Wales,NSW,Yarramundi,2753,-33.64755,150.65129
New South Wales,NSW,Booligal,2711,-33.7322,144.68326
New South Wales,NSW,Hay (NSW),2711,-34.37832,144.83833
New South Wales,NSW,Hay South,2711,-34.65671,144.78849
New South Wales,NSW,Maude (NSW),2711,-34.49371,144.20611
New South Wales,NSW,One Tree,2711,-34.16585,144.81476
New South Wales,NSW,Barwang,2594,-34.44765,148.46803
New South Wales,NSW,Beggan Beggan,2587,-34.65588,148.2917
New South Wales,NSW,Bendick Murrell,2803,-34.18666,148.44808
New South Wales,NSW,Berremangra,2582,-34.79534,148.4836
New South Wales,NSW,Berthong,2594,-34.38949,148.10716
New South Wales,NSW,Boorowa,2586,-34.36158,148.74651
New South Wales,NSW,Bribbaree,2594,-34.11052,147.89352
New South Wales,NSW,Bulla Creek,2594,-34.12482,148.26136
New South Wales,NSW,Burrangong,2594,-34.28941,148.25131
New South Wales,NSW,Crowther,2803,-34.12511,148.54515
New South Wales,NSW,Cunningar,2587,-34.56549,148.4101
New South Wales,NSW,Frogmore,2586,-34.24284,148.87683
